$GNGGA,075059.87,3753.0151919,N,13903.4326404,E,2,12,0.65,5.107,M,37.492,M,,0885*40
$GNGLL,3753.0151919,N,13903.4326404,E,075059.87,A,D*7E
$PRDID,-0.1,-0.0,21.5*7E
$PSAT,HPR,075100.00,21.5,-0.1,-0.0,G*2F
$GNRMC,075100.00,A,3753.0151922,N,13903.4326408,E,0.031,176.58,280221,,,D,V*01
$GNVTG,176.58,T,,M,0.031,N,0.058,K,D*24
$GNGGA,075100.00,3753.0151922,N,13903.4326408,E,2,12,0.65,5.109,M,37.492,M,,0885*48
$GNGLL,3753.0151922,N,13903.4326408,E,075100.00,A,D*78
$PRDID,-0.1,0.0,21.3*55
$PSAT,HPR,075100.12,21.3,-0.1,0.0,G*07
$GNRMC,075100.12,A,3753.0151922,N,13903.4326405,E,0.022,176.58,280221,,,D,V*0D
$GNVTG,176.58,T,,M,0.022,N,0.041,K,D*2E
$GNGGA,075100.12,3753.0151922,N,13903.4326405,E,2,12,0.65,5.108,M,37.492,M,,0885*47
$GNGLL,3753.0151922,N,13903.4326405,E,075100.12,A,D*76
$PRDID,-0.1,-0.0,21.3*78
$PSAT,HPR,075100.24,21.3,-0.1,-0.0,G*2F
$GNRMC,075100.25,A,3753.0151906,N,13903.4326426,E,0.048,176.58,280221,,,D,V*02
$GNVTG,176.58,T,,M,0.048,N,0.089,K,D*26
$GNGGA,075100.25,3753.0151906,N,13903.4326426,E,2,12,0.65,5.112,M,37.492,M,,0885*4F
$GNGLL,3753.0151906,N,13903.4326426,E,075100.25,A,D*75
$PRDID,-0.1,-0.0,21.3*78
$PSAT,HPR,075100.37,21.3,-0.1,-0.0,G*2D
$GNRMC,075100.37,A,3753.0151903,N,13903.4326427,E,0.015,176.58,280221,,,D,V*0D
$GNVTG,176.58,T,,M,0.015,N,0.029,K,D*24
$GNGGA,075100.37,3753.0151903,N,13903.4326427,E,2,12,0.65,5.112,M,37.492,M,,0885*48
$GNGLL,3753.0151903,N,13903.4326427,E,075100.37,A,D*72
$PRDID,-0.0,0.0,21.3*54
$PSAT,HPR,075100.49,21.3,-0.0,0.0,G*08
$GNRMC,075100.50,A,3753.0151903,N,13903.4326436,E,0.016,176.58,280221,,,D,V*0F
$GNVTG,176.58,T,,M,0.016,N,0.030,K,D*2F
$GNGGA,075100.50,3753.0151903,N,13903.4326436,E,2,12,0.65,5.112,M,37.492,M,,0885*49
$GNGLL,3753.0151903,N,13903.4326436,E,075100.50,A,D*73
$PRDID,-0.1,-0.0,21.3*78
$PSAT,HPR,075100.62,21.3,-0.1,-0.0,G*2D
$GNRMC,075100.62,A,3753.0151892,N,13903.4326442,E,0.013,176.58,280221,,,D,V*01
$GNVTG,176.58,T,,M,0.013,N,0.024,K,D*2F
$GNGGA,075100.62,3753.0151892,N,13903.4326442,E,2,12,0.65,5.115,M,37.492,M,,0885*45
$GNGLL,3753.0151892,N,13903.4326442,E,075100.62,A,D*78
$PRDID,-0.1,-0.0,21.3*78
$PSAT,HPR,075100.74,21.3,-0.1,-0.0,G*2A
$GNRMC,075100.75,A,3753.0151891,N,13903.4326448,E,0.013,176.58,280221,,,D,V*0E
$GNVTG,176.58,T,,M,0.013,N,0.024,K,D*2F
$GNGGA,075100.75,3753.0151891,N,13903.4326448,E,2,12,0.65,5.113,M,37.492,M,,0885*4C
$GNGLL,3753.0151891,N,13903.4326448,E,075100.75,A,D*77
$PRDID,-0.1,-0.0,21.3*78
$PSAT,HPR,075100.87,21.3,-0.1,-0.0,G*26
$GNRMC,075100.87,A,3753.0151885,N,13903.4326447,E,0.012,176.58,280221,,,D,V*08
$GNVTG,176.58,T,,M,0.012,N,0.022,K,D*28
$GNGGA,075100.87,3753.0151885,N,13903.4326447,E,2,12,0.65,5.114,M,37.492,M,,0885*4C
$GNGLL,3753.0151885,N,13903.4326447,E,075100.87,A,D*70
$PRDID,-0.1,-0.0,21.3*78
$PSAT,HPR,075101.00,21.3,-0.1,-0.0,G*28
$GNRMC,075101.00,A,3753.0151878,N,13903.4326458,E,0.015,176.58,280221,,,D,V*0D
$GNVTG,176.58,T,,M,0.015,N,0.027,K,D*2A
$GNGGA,075101.00,3753.0151878,N,13903.4326458,E,2,12,0.65,5.112,M,37.492,M,,0885*48
$GNGLL,3753.0151878,N,13903.4326458,E,075101.00,A,D*72
$PRDID,-0.1,-0.0,21.3*78
$PSAT,HPR,075101.12,21.3,-0.1,-0.0,G*2B
$GNRMC,075101.12,A,3753.0151871,N,13903.4326457,E,0.016,176.58,280221,,,D,V*0B
$GNVTG,176.58,T,,M,0.016,N,0.029,K,D*27
$GNGGA,075101.12,3753.0151871,N,13903.4326457,E,2,12,0.65,5.117,M,37.492,M,,0885*48
$GNGLL,3753.0151871,N,13903.4326457,E,075101.12,A,D*77
$PRDID,-0.1,-0.0,21.3*78
$PSAT,HPR,075101.24,21.3,-0.1,-0.0,G*2E
$GNRMC,075101.25,A,3753.0151862,N,13903.4326465,E,0.010,176.58,280221,,,D,V*0A
$GNVTG,176.58,T,,M,0.010,N,0.018,K,D*23
$GNGGA,075101.25,3753.0151862,N,13903.4326465,E,2,12,0.65,5.113,M,37.492,M,,0885*4B
$GNGLL,3753.0151862,N,13903.4326465,E,075101.25,A,D*70
$PRDID,-0.1,-0.1,21.3*79
$PSAT,HPR,075101.37,21.3,-0.1,-0.1,G*2D
$GNRMC,075101.37,A,3753.0151860,N,13903.4326467,E,0.016,176.58,280221,,,D,V*0F
$GNVTG,176.58,T,,M,0.016,N,0.030,K,D*2F
$GNGGA,075101.37,3753.0151860,N,13903.4326467,E,2,12,0.65,5.114,M,37.492,M,,0885*4F
$GNGLL,3753.0151860,N,13903.4326467,E,075101.37,A,D*73
$PRDID,-0.1,-0.1,21.3*79
$PSAT,HPR,075101.49,21.3,-0.1,-0.1,G*24
$GNRMC,075101.50,A,3753.0151858,N,13903.4326475,E,0.011,176.58,280221,,,D,V*01
$GNVTG,176.58,T,,M,0.011,N,0.020,K,D*29
$GNGGA,075101.50,3753.0151858,N,13903.4326475,E,2,12,0.65,5.113,M,37.492,M,,0885*41
$GNGLL,3753.0151858,N,13903.4326475,E,075101.50,A,D*7A
$PRDID,-0.1,-0.0,21.3*78
$PSAT,HPR,075101.62,21.3,-0.1,-0.0,G*2C
$GNRMC,075101.62,A,3753.0151852,N,13903.4326482,E,0.005,176.58,280221,,,D,V*07
$GNVTG,176.58,T,,M,0.005,N,0.009,K,D*27
$GNGGA,075101.62,3753.0151852,N,13903.4326482,E,2,12,0.65,5.114,M,37.492,M,,0885*45
$GNGLL,3753.0151852,N,13903.4326482,E,075101.62,A,D*79
$PRDID,-0.1,-0.1,21.3*79
$PSAT,HPR,075101.74,21.3,-0.1,-0.1,G*2A
$GNRMC,075101.75,A,3753.0151844,N,13903.4326494,E,0.010,176.58,280221,,,D,V*05
$GNVTG,176.58,T,,M,0.010,N,0.019,K,D*22
$GNGGA,075101.75,3753.0151844,N,13903.4326494,E,2,12,0.65,5.112,M,37.492,M,,0885*45
$GNGLL,3753.0151844,N,13903.4326494,E,075101.75,A,D*7F
$PRDID,-0.1,-0.1,21.3*79
$PSAT,HPR,075101.87,21.3,-0.1,-0.1,G*26
$GNRMC,075101.87,A,3753.0151846,N,13903.4326491,E,0.029,176.58,280221,,,D,V*05
$GNVTG,176.58,T,,M,0.029,N,0.053,K,D*26
$GNGGA,075101.87,3753.0151846,N,13903.4326491,E,2,12,0.65,5.113,M,37.492,M,,0885*4E
$GNGLL,3753.0151846,N,13903.4326491,E,075101.87,A,D*75
$PRDID,-0.1,-0.1,21.3*79
$PSAT,HPR,075102.00,21.3,-0.1,-0.1,G*2A
$GNRMC,075102.00,A,3753.0151840,N,13903.4326513,E,0.037,176.58,280221,,,D,V*0B
$GNVTG,176.58,T,,M,0.037,N,0.069,K,D*20
$GNGGA,075102.00,3753.0151840,N,13903.4326513,E,2,12,0.65,5.115,M,37.492,M,,0885*49
$GNGLL,3753.0151840,N,13903.4326513,E,075102.00,A,D*74
$PRDID,-0.1,-0.1,21.3*79
$PSAT,HPR,075102.12,21.3,-0.1,-0.1,G*29
$GNRMC,075102.12,A,3753.0151838,N,13903.4326522,E,0.007,176.58,280221,,,D,V*06
$GNVTG,176.58,T,,M,0.007,N,0.013,K,D*2E
$GNGGA,075102.12,3753.0151838,N,13903.4326522,E,2,12,0.65,5.111,M,37.492,M,,0885*43
$GNGLL,3753.0151838,N,13903.4326522,E,075102.12,A,D*7A
$PRDID,-0.1,-0.1,21.3*79
$PSAT,HPR,075102.24,21.3,-0.1,-0.1,G*2C
$GNRMC,075102.25,A,3753.0151835,N,13903.4326521,E,0.013,176.58,280221,,,D,V*09
$GNVTG,176.58,T,,M,0.013,N,0.023,K,D*28
$GNGGA,075102.25,3753.0151835,N,13903.4326521,E,2,12,0.65,5.112,M,37.492,M,,0885*4A
$GNGLL,3753.0151835,N,13903.4326521,E,075102.25,A,D*70
$PRDID,-0.1,-0.1,21.3*79
$PSAT,HPR,075102.37,21.3,-0.1,-0.1,G*2E
$GNRMC,075102.37,A,3753.0151839,N,13903.4326530,E,0.022,176.58,280221,,,D,V*04
$GNVTG,176.58,T,,M,0.022,N,0.041,K,D*2E
$GNGGA,075102.37,3753.0151839,N,13903.4326530,E,2,12,0.65,5.109,M,37.492,M,,0885*4F
$GNGLL,3753.0151839,N,13903.4326530,E,075102.37,A,D*7F
$PRDID,-0.1,-0.1,21.3*79
$PSAT,HPR,075102.49,21.3,-0.1,-0.1,G*27
$GNRMC,075102.50,A,3753.0151834,N,13903.4326547,E,0.026,176.58,280221,,,D,V*0C
$GNVTG,176.58,T,,M,0.026,N,0.048,K,D*23
$GNGGA,075102.50,3753.0151834,N,13903.4326547,E,2,12,0.65,5.111,M,37.492,M,,0885*4A
$GNGLL,3753.0151834,N,13903.4326547,E,075102.50,A,D*73
$PRDID,-0.1,-0.0,21.3*78
$PSAT,HPR,075102.62,21.3,-0.1,-0.0,G*2F
$GNRMC,075102.62,A,3753.0151830,N,13903.4326552,E,0.006,176.58,280221,,,D,V*0F
$GNVTG,176.58,T,,M,0.006,N,0.012,K,D*2E
$GNGGA,075102.62,3753.0151830,N,13903.4326552,E,2,12,0.65,5.112,M,37.492,M,,0885*48
$GNGLL,3753.0151830,N,13903.4326552,E,075102.62,A,D*72
$PRDID,-0.1,-0.1,21.3*79
$PSAT,HPR,075102.74,21.3,-0.1,-0.1,G*29
$GNRMC,075102.75,A,3753.0151832,N,13903.4326552,E,0.015,176.58,280221,,,D,V*09
$GNVTG,176.58,T,,M,0.015,N,0.028,K,D*25
$GNGGA,075102.75,3753.0151832,N,13903.4326552,E,2,12,0.65,5.109,M,37.492,M,,0885*46
$GNGLL,3753.0151832,N,13903.4326552,E,075102.75,A,D*76
$PRDID,-0.1,-0.1,21.3*79
$PSAT,HPR,075102.87,21.3,-0.1,-0.1,G*25
$GNRMC,075102.87,A,3753.0151834,N,13903.4326561,E,0.020,176.58,280221,,,D,V*04
$GNVTG,176.58,T,,M,0.020,N,0.038,K,D*22
$GNGGA,075102.87,3753.0151834,N,13903.4326561,E,2,12,0.65,5.110,M,37.492,M,,0885*45
$GNGLL,3753.0151834,N,13903.4326561,E,075102.87,A,D*7D
$PRDID,-0.1,-0.0,21.3*78
$PSAT,HPR,075103.00,21.3,-0.1,-0.0,G*2A
$GNRMC,075103.00,A,3753.0151837,N,13903.4326554,E,0.029,176.58,280221,,,D,V*06
$GNVTG,176.58,T,,M,0.029,N,0.054,K,D*21
$GNGGA,075103.00,3753.0151837,N,13903.4326554,E,2,12,0.65,5.106,M,37.492,M,,0885*49
$GNGLL,3753.0151837,N,13903.4326554,E,075103.00,A,D*76
$PRDID,-0.1,0.0,21.3*55
$PSAT,HPR,075103.12,21.3,-0.1,0.0,G*04
$GNRMC,075103.12,A,3753.0151848,N,13903.4326561,E,0.040,176.58,280221,,,D,V*04
$GNVTG,176.58,T,,M,0.040,N,0.074,K,D*2C
$GNGGA,075103.12,3753.0151848,N,13903.4326561,E,2,12,0.65,5.103,M,37.492,M,,0885*41
$GNGLL,3753.0151848,N,13903.4326561,E,075103.12,A,D*7B
$PRDID,-0.1,-0.0,21.3*78
$PSAT,HPR,075103.24,21.3,-0.1,-0.0,G*2C
$GNRMC,075103.25,A,3753.0151838,N,13903.4326577,E,0.029,176.58,280221,,,D,V*0F
$GNVTG,176.58,T,,M,0.029,N,0.053,K,D*26
$GNGGA,075103.25,3753.0151838,N,13903.4326577,E,2,12,0.65,5.103,M,37.492,M,,0885*45
$GNGLL,3753.0151838,N,13903.4326577,E,075103.25,A,D*7F
$PRDID,-0.1,-0.0,21.3*78
$PSAT,HPR,075103.37,21.3,-0.1,-0.0,G*2E
$GNRMC,075103.37,A,3753.0151840,N,13903.4326581,E,0.020,176.58,280221,,,D,V*03
$GNVTG,176.58,T,,M,0.020,N,0.037,K,D*2D
$GNGGA,075103.37,3753.0151840,N,13903.4326581,E,2,12,0.65,5.100,M,37.492,M,,0885*43
$GNGLL,3753.0151840,N,13903.4326581,E,075103.37,A,D*7A
$PRDID,-0.1,0.0,21.3*55
$PSAT,HPR,075103.49,21.3,-0.1,0.0,G*0A
$GNRMC,075103.50,A,3753.0151831,N,13903.4326586,E,0.010,176.58,280221,,,D,V*00
$GNVTG,176.58,T,,M,0.010,N,0.018,K,D*23
$GNGGA,075103.50,3753.0151831,N,13903.4326586,E,2,12,0.65,5.101,M,37.492,M,,0885*42
$GNGLL,3753.0151831,N,13903.4326586,E,075103.50,A,D*7A
$PRDID,-0.1,0.0,21.3*55
$PSAT,HPR,075103.62,21.3,-0.1,0.0,G*03
$GNRMC,075103.62,A,3753.0151824,N,13903.4326596,E,0.013,176.58,280221,,,D,V*07
$GNVTG,176.58,T,,M,0.013,N,0.024,K,D*2F
$GNGGA,075103.62,3753.0151824,N,13903.4326596,E,2,12,0.65,5.098,M,37.492,M,,0885*47
$GNGLL,3753.0151824,N,13903.4326596,E,075103.62,A,D*7E
$PRDID,-0.1,-0.0,21.3*78
$PSAT,HPR,075103.74,21.3,-0.1,-0.0,G*29
$GNRMC,075103.75,A,3753.0151827,N,13903.4326601,E,0.016,176.58,280221,,,D,V*0A
$GNVTG,176.58,T,,M,0.016,N,0.030,K,D*2F
$GNGGA,075103.75,3753.0151827,N,13903.4326601,E,2,12,0.65,5.096,M,37.492,M,,0885*41
$GNGLL,3753.0151827,N,13903.4326601,E,075103.75,A,D*76
$PRDID,-0.1,0.0,21.3*55
$PSAT,HPR,075103.87,21.3,-0.1,0.0,G*08
$GNRMC,075103.87,A,3753.0151830,N,13903.4326607,E,0.016,176.58,280221,,,D,V*07
$GNVTG,176.58,T,,M,0.016,N,0.030,K,D*2F
$GNGGA,075103.87,3753.0151830,N,13903.4326607,E,2,12,0.65,5.094,M,37.492,M,,0885*4E
$GNGLL,3753.0151830,N,13903.4326607,E,075103.87,A,D*7B
$PRDID,-0.1,-0.0,21.3*78
$PSAT,HPR,075104.00,21.3,-0.1,-0.0,G*2D
$GNRMC,075104.00,A,3753.0151825,N,13903.4326612,E,0.011,176.58,280221,,,D,V*08
$GNVTG,176.58,T,,M,0.011,N,0.020,K,D*29
$GNGGA,075104.00,3753.0151825,N,13903.4326612,E,2,12,0.65,5.091,M,37.492,M,,0885*43
$GNGLL,3753.0151825,N,13903.4326612,E,075104.00,A,D*73
$PRDID,-0.1,0.1,21.3*54
$PSAT,HPR,075104.12,21.3,-0.1,0.1,G*02
$GNRMC,075104.12,A,3753.0151823,N,13903.4326620,E,0.008,176.58,280221,,,D,V*04
$GNVTG,176.58,T,,M,0.008,N,0.014,K,D*26
$GNGGA,075104.12,3753.0151823,N,13903.4326620,E,2,12,0.65,5.092,M,37.492,M,,0885*44
$GNGLL,3753.0151823,N,13903.4326620,E,075104.12,A,D*77
$PRDID,-0.1,0.2,21.3*57
$PSAT,HPR,075104.24,21.3,-0.1,0.2,G*04
$GNRMC,075104.25,A,3753.0151820,N,13903.4326634,E,0.019,176.58,280221,,,D,V*06
$GNVTG,176.58,T,,M,0.019,N,0.035,K,D*25
$GNGGA,075104.25,3753.0151820,N,13903.4326634,E,2,12,0.65,5.087,M,37.492,M,,0885*42
$GNGLL,3753.0151820,N,13903.4326634,E,075104.25,A,D*75
$PRDID,-0.1,0.2,21.3*57
$PSAT,HPR,075104.37,21.3,-0.1,0.2,G*06
$GNRMC,075104.37,A,3753.0151833,N,13903.4326632,E,0.038,176.58,280221,,,D,V*02
$GNVTG,176.58,T,,M,0.038,N,0.070,K,D*27
$GNGGA,075104.37,3753.0151833,N,13903.4326632,E,2,12,0.65,5.087,M,37.492,M,,0885*45
$GNGLL,3753.0151833,N,13903.4326632,E,075104.37,A,D*72
$GNTXT,01,01,01,wait for cfg ACK*2B
$PRDID,-0.0,0.1,21.3*55
$PSAT,HPR,075104.49,21.3,-0.0,0.1,G*0D
$GNRMC,075104.50,A,3753.0151832,N,13903.4326648,E,0.021,176.58,280221,,,D,V*07
$GNVTG,176.58,T,,M,0.021,N,0.040,K,D*2C
$GNGGA,075104.50,3753.0151832,N,13903.4326648,E,2,12,0.65,5.085,M,37.492,M,,0885*4A
$GNGLL,3753.0151832,N,13903.4326648,E,075104.50,A,D*7F
$PRDID,-0.0,0.1,21.3*55
$PSAT,HPR,075104.62,21.3,-0.0,0.1,G*04
$GNRMC,075104.62,A,3753.0151831,N,13903.4326654,E,0.005,176.58,280221,,,D,V*0E
$GNVTG,176.58,T,,M,0.005,N,0.010,K,D*2F
$GNGGA,075104.62,3753.0151831,N,13903.4326654,E,2,12,0.65,5.081,M,37.492,M,,0885*41
$GNGLL,3753.0151831,N,13903.4326654,E,075104.62,A,D*70
$PRDID,-0.1,0.1,21.3*54
$PSAT,HPR,075104.74,21.3,-0.1,0.1,G*02
$GNRMC,075104.75,A,3753.0151838,N,13903.4326660,E,0.014,176.58,280221,,,D,V*06
$GNVTG,176.58,T,,M,0.014,N,0.026,K,D*2A
$GNGGA,075104.75,3753.0151838,N,13903.4326660,E,2,12,0.65,5.082,M,37.492,M,,0885*4A
$GNGLL,3753.0151838,N,13903.4326660,E,075104.75,A,D*78
$PRDID,-0.1,0.1,21.3*54
$PSAT,HPR,075104.87,21.3,-0.1,0.1,G*0E
$GNRMC,075104.87,A,3753.0151841,N,13903.4326667,E,0.005,176.58,280221,,,D,V*02
$GNVTG,176.58,T,,M,0.005,N,0.009,K,D*27
$GNGGA,075104.87,3753.0151841,N,13903.4326667,E,2,12,0.65,5.078,M,37.492,M,,0885*4B
$GNGLL,3753.0151841,N,13903.4326667,E,075104.87,A,D*7C
$PRDID,-0.1,0.1,21.3*54
$PSAT,HPR,075105.00,21.3,-0.1,0.1,G*00
$GNRMC,075105.00,A,3753.0151839,N,13903.4326677,E,0.009,176.58,280221,,,D,V*0E
$GNVTG,176.58,T,,M,0.009,N,0.016,K,D*25
$GNGGA,075105.00,3753.0151839,N,13903.4326677,E,2,12,0.65,5.075,M,37.492,M,,0885*46
$GNGLL,3753.0151839,N,13903.4326677,E,075105.00,A,D*7C
$PRDID,-0.1,0.1,21.3*54
$PSAT,HPR,075105.12,21.3,-0.1,0.1,G*03
$GNRMC,075105.12,A,3753.0151851,N,13903.4326671,E,0.039,176.58,280221,,,D,V*06
$GNVTG,176.58,T,,M,0.039,N,0.072,K,D*24
$GNGGA,075105.12,3753.0151851,N,13903.4326671,E,2,12,0.65,5.073,M,37.492,M,,0885*4B
$GNGLL,3753.0151851,N,13903.4326671,E,075105.12,A,D*77
$PRDID,-0.1,0.1,21.3*54
$PSAT,HPR,075105.24,21.3,-0.1,0.1,G*06
$GNRMC,075105.25,A,3753.0151844,N,13903.4326690,E,0.033,176.58,280221,,,D,V*03
$GNVTG,176.58,T,,M,0.033,N,0.060,K,D*2D
$GNGGA,075105.25,3753.0151844,N,13903.4326690,E,2,12,0.65,5.071,M,37.492,M,,0885*46
$GNGLL,3753.0151844,N,13903.4326690,E,075105.25,A,D*78
$PRDID,-0.1,0.1,21.3*54
$PSAT,HPR,075105.37,21.3,-0.1,0.1,G*04
$GNRMC,075105.37,A,3753.0151849,N,13903.4326693,E,0.007,176.58,280221,,,D,V*09
$GNVTG,176.58,T,,M,0.007,N,0.013,K,D*2E
$GNGGA,075105.37,3753.0151849,N,13903.4326693,E,2,12,0.65,5.067,M,37.492,M,,0885*4C
$GNGLL,3753.0151849,N,13903.4326693,E,075105.37,A,D*75
$PRDID,-0.1,0.1,21.3*54
$PSAT,HPR,075105.49,21.3,-0.1,0.1,G*0D
$GNRMC,075105.50,A,3753.0151851,N,13903.4326706,E,0.014,176.58,280221,,,D,V*0E
$GNVTG,176.58,T,,M,0.014,N,0.027,K,D*2B
$GNGGA,075105.50,3753.0151851,N,13903.4326706,E,2,12,0.65,5.063,M,37.492,M,,0885*4D
$GNGLL,3753.0151851,N,13903.4326706,E,075105.50,A,D*70
$PRDID,-0.1,0.1,21.3*54
$PSAT,HPR,075105.62,21.3,-0.1,0.1,G*04
$GNRMC,075105.62,A,3753.0151854,N,13903.4326707,E,0.017,176.58,280221,,,D,V*08
$GNVTG,176.58,T,,M,0.017,N,0.032,K,D*2C
$GNGGA,075105.62,3753.0151854,N,13903.4326707,E,2,12,0.65,5.063,M,37.492,M,,0885*48
$GNGLL,3753.0151854,N,13903.4326707,E,075105.62,A,D*75
$PRDID,-0.1,0.1,21.3*54
$PSAT,HPR,075105.74,21.3,-0.1,0.1,G*03
$GNRMC,075105.75,A,3753.0151850,N,13903.4326717,E,0.010,176.58,280221,,,D,V*0C
$GNVTG,176.58,T,,M,0.010,N,0.019,K,D*22
$GNGGA,075105.75,3753.0151850,N,13903.4326717,E,2,12,0.65,5.059,M,37.492,M,,0885*42
$GNGLL,3753.0151850,N,13903.4326717,E,075105.75,A,D*76
$PRDID,-0.1,0.1,21.3*54
$PSAT,HPR,075105.87,21.3,-0.1,0.1,G*0F
$GNRMC,075105.87,A,3753.0151855,N,13903.4326727,E,0.012,176.58,280221,,,D,V*05
$GNVTG,176.58,T,,M,0.012,N,0.023,K,D*29
$GNGGA,075105.87,3753.0151855,N,13903.4326727,E,2,12,0.65,5.053,M,37.492,M,,0885*43
$GNGLL,3753.0151855,N,13903.4326727,E,075105.87,A,D*7D
$PRDID,-0.1,0.1,21.3*54
$PSAT,HPR,075106.00,21.3,-0.1,0.1,G*03
$GNRMC,075106.00,A,3753.0151856,N,13903.4326737,E,0.004,176.58,280221,,,D,V*0C
$GNVTG,176.58,T,,M,0.004,N,0.008,K,D*27
$GNGGA,075106.00,3753.0151856,N,13903.4326737,E,2,12,0.65,5.051,M,37.492,M,,0885*4F
$GNGLL,3753.0151856,N,13903.4326737,E,075106.00,A,D*73
$PRDID,-0.1,0.1,21.3*54
$PSAT,HPR,075106.12,21.3,-0.1,0.1,G*00
$GNRMC,075106.12,A,3753.0151862,N,13903.4326741,E,0.013,176.58,280221,,,D,V*0F
$GNVTG,176.58,T,,M,0.013,N,0.025,K,D*2E
$GNGGA,075106.12,3753.0151862,N,13903.4326741,E,2,12,0.65,5.047,M,37.492,M,,0885*4D
$GNGLL,3753.0151862,N,13903.4326741,E,075106.12,A,D*76
$PRDID,-0.1,0.1,21.3*54
$PSAT,HPR,075106.24,21.3,-0.1,0.1,G*05
$GNRMC,075106.25,A,3753.0151871,N,13903.4326752,E,0.023,176.58,280221,,,D,V*08
$GNVTG,176.58,T,,M,0.023,N,0.043,K,D*2D
$GNGGA,075106.25,3753.0151871,N,13903.4326752,E,2,12,0.65,5.043,M,37.492,M,,0885*4D
$GNGLL,3753.0151871,N,13903.4326752,E,075106.25,A,D*72
$PRDID,-0.1,0.2,21.3*57
$PSAT,HPR,075106.37,21.3,-0.1,0.2,G*04
$GNRMC,075106.37,A,3753.0151865,N,13903.4326763,E,0.026,176.58,280221,,,D,V*09
$GNVTG,176.58,T,,M,0.026,N,0.049,K,D*22
$GNGGA,075106.37,3753.0151865,N,13903.4326763,E,2,12,0.65,5.037,M,37.492,M,,0885*4A
$GNGLL,3753.0151865,N,13903.4326763,E,075106.37,A,D*76
$PRDID,-0.1,-0.0,21.3*78
$PSAT,HPR,075106.49,21.3,-0.1,-0.0,G*22
$GNRMC,075106.50,A,3753.0151836,N,13903.4326786,E,0.094,176.58,280221,,,D,V*0C
$GNVTG,176.58,T,,M,0.094,N,0.175,K,D*25
$GNGGA,075106.50,3753.0151836,N,13903.4326786,E,2,12,0.65,5.030,M,37.492,M,,0885*41
$GNGLL,3753.0151836,N,13903.4326786,E,075106.50,A,D*7A
$PRDID,-0.2,-0.2,21.3*79
$PSAT,HPR,075106.62,21.3,-0.2,-0.2,G*2A
$GNRMC,075106.62,A,3753.0151859,N,13903.4326808,E,0.064,176.58,280221,,,D,V*02
$GNVTG,176.58,T,,M,0.064,N,0.118,K,D*21
$GNGGA,075106.62,3753.0151859,N,13903.4326808,E,2,12,0.65,5.028,M,37.492,M,,0885*49
$GNGLL,3753.0151859,N,13903.4326808,E,075106.62,A,D*7B
$PRDID,-0.2,-0.1,21.3*7A
$PSAT,HPR,075106.74,21.3,-0.2,-0.1,G*2E
$GNRMC,075106.75,A,3753.0151871,N,13903.4326799,E,0.046,176.58,280221,,,D,V*09
$GNVTG,176.58,T,,M,0.046,N,0.085,K,D*24
$GNGGA,075106.75,3753.0151871,N,13903.4326799,E,2,12,0.65,5.025,M,37.492,M,,0885*4F
$GNGLL,3753.0151871,N,13903.4326799,E,075106.75,A,D*70
$PRDID,-0.1,-0.0,21.3*78
$PSAT,HPR,075106.87,21.3,-0.1,-0.0,G*20
$GNRMC,075106.87,A,3753.0153867,N,13903.4322139,E,0.080,176.58,280221,,,D,V*03
$GNVTG,176.58,T,,M,0.080,N,0.148,K,D*2E
$GNGGA,075106.87,3753.0153867,N,13903.4322139,E,2,12,0.59,8.437,M,37.492,M,,0885*4A
$GNGLL,3753.0153867,N,13903.4322139,E,075106.87,A,D*70
$PRDID,-0.1,-0.0,21.3*78
$PSAT,HPR,075107.00,21.3,-0.1,-0.0,G*2E
$GNRMC,075107.00,A,3753.0154014,N,13903.4321388,E,0.053,176.58,280221,,,D,V*03
$GNVTG,176.58,T,,M,0.053,N,0.098,K,D*2C
$GNGGA,075107.00,3753.0154014,N,13903.4321388,E,2,12,0.59,8.607,M,37.492,M,,0885*45
$GNGLL,3753.0154014,N,13903.4321388,E,075107.00,A,D*7E
$PRDID,-0.1,-0.1,21.2*78
$PSAT,HPR,075107.12,21.2,-0.1,-0.1,G*2D
$GNRMC,075107.12,A,3753.0154014,N,13903.4321080,E,0.022,176.58,280221,,,D,V*0D
$GNVTG,176.58,T,,M,0.022,N,0.041,K,D*2E
$GNGGA,075107.12,3753.0154014,N,13903.4321080,E,2,12,0.59,8.624,M,37.492,M,,0885*4C
$GNGLL,3753.0154014,N,13903.4321080,E,075107.12,A,D*76
$PRDID,-0.1,-0.2,21.3*7A
$PSAT,HPR,075107.24,21.3,-0.1,-0.2,G*2A
$GNRMC,075107.25,A,3753.0154026,N,13903.4320983,E,0.007,176.58,280221,,,D,V*04
$GNVTG,176.58,T,,M,0.007,N,0.013,K,D*2E
$GNGGA,075107.25,3753.0154026,N,13903.4320983,E,2,12,0.59,8.588,M,37.492,M,,0885*47
$GNGLL,3753.0154026,N,13903.4320983,E,075107.25,A,D*78
$PRDID,-0.1,-0.2,21.4*7D
$PSAT,HPR,075107.37,21.4,-0.1,-0.2,G*2F
$GNRMC,075107.37,A,3753.0154057,N,13903.4320974,E,0.056,176.58,280221,,,D,V*0D
$GNVTG,176.58,T,,M,0.056,N,0.104,K,D*2D
$GNGGA,075107.37,3753.0154057,N,13903.4320974,E,2,12,0.59,8.543,M,37.492,M,,0885*4D
$GNGLL,3753.0154057,N,13903.4320974,E,075107.37,A,D*75
$PRDID,-0.1,-0.2,21.5*7C
$PSAT,HPR,075107.49,21.5,-0.1,-0.2,G*27
$GNRMC,075107.50,A,3753.0154066,N,13903.4321005,E,0.069,176.58,280221,,,D,V*0C
$GNVTG,176.58,T,,M,0.069,N,0.127,K,D*20
$GNGGA,075107.50,3753.0154066,N,13903.4321005,E,2,12,0.59,8.486,M,37.492,M,,0885*48
$GNGLL,3753.0154066,N,13903.4321005,E,075107.50,A,D*78
$PRDID,-0.1,-0.2,21.5*7C
$PSAT,HPR,075107.62,21.5,-0.1,-0.2,G*2E
$GNRMC,075107.62,A,3753.0154174,N,13903.4321000,E,0.037,176.58,280221,,,D,V*01
$GNVTG,176.58,T,,M,0.037,N,0.069,K,D*20
$GNGGA,075107.62,3753.0154174,N,13903.4321000,E,2,12,0.59,8.422,M,37.492,M,,0885*40
$GNGLL,3753.0154174,N,13903.4321000,E,075107.62,A,D*7E
$PRDID,-0.1,-0.2,21.6*7F
$PSAT,HPR,075107.87,21.6,-0.1,-0.2,G*26
$GNRMC,075107.87,A,3753.0154296,N,13903.4320969,E,0.010,176.58,280221,,,D,V*07
$GNVTG,176.58,T,,M,0.010,N,0.019,K,D*22
$GNGGA,075107.87,3753.0154296,N,13903.4320969,E,2,12,0.59,8.344,M,37.492,M,,0885*44
$GNGLL,3753.0154296,N,13903.4320969,E,075107.87,A,D*7D
$PRDID,-0.1,-0.1,21.6*7C
$PSAT,HPR,075108.00,21.6,-0.1,-0.1,G*25
$GNRMC,075108.00,A,3753.0154398,N,13903.4320906,E,0.009,176.58,280221,,,D,V*09
$GNVTG,176.58,T,,M,0.009,N,0.017,K,D*24
$GNGGA,075108.00,3753.0154398,N,13903.4320906,E,2,12,0.59,8.273,M,37.492,M,,0885*47
$GNGLL,3753.0154398,N,13903.4320906,E,075108.00,A,D*7B
$PRDID,-0.1,-0.2,21.5*7C
$PSAT,HPR,075108.12,21.5,-0.1,-0.2,G*26
$GNRMC,075108.12,A,3753.0154493,N,13903.4320880,E,0.024,176.58,280221,,,D,V*06
$GNVTG,176.58,T,,M,0.024,N,0.045,K,D*2C
$GNGGA,075108.12,3753.0154493,N,13903.4320880,E,2,12,0.59,8.197,M,37.492,M,,0885*4E
$GNGLL,3753.0154493,N,13903.4320880,E,075108.12,A,D*7B
$PRDID,-0.1,-0.2,21.5*7C
$PSAT,HPR,075108.24,21.5,-0.1,-0.2,G*23
$GNRMC,075108.25,A,3753.0154586,N,13903.4320840,E,0.015,176.58,280221,,,D,V*09
$GNVTG,176.58,T,,M,0.015,N,0.028,K,D*25
$GNGGA,075108.25,3753.0154586,N,13903.4320840,E,2,12,0.59,8.126,M,37.492,M,,0885*49
$GNGLL,3753.0154586,N,13903.4320840,E,075108.25,A,D*76
$PRDID,-0.1,-0.1,21.6*7C
$PSAT,HPR,075108.37,21.6,-0.1,-0.1,G*21
$GNRMC,075108.37,A,3753.0154665,N,13903.4320838,E,0.014,176.58,280221,,,D,V*0A
$GNVTG,176.58,T,,M,0.014,N,0.025,K,D*29
$GNGGA,075108.37,3753.0154665,N,13903.4320838,E,2,12,0.59,8.056,M,37.492,M,,0885*4D
$GNGLL,3753.0154665,N,13903.4320838,E,075108.37,A,D*74
$PRDID,-0.1,-0.1,21.6*7C
$PSAT,HPR,075108.49,21.6,-0.1,-0.1,G*28
$GNRMC,075108.50,A,3753.0154729,N,13903.4320853,E,0.008,176.58,280221,,,D,V*02
$GNVTG,176.58,T,,M,0.008,N,0.015,K,D*27
$GNGGA,075108.50,3753.0154729,N,13903.4320853,E,2,12,0.59,7.990,M,37.492,M,,0885*44
$GNGLL,3753.0154729,N,13903.4320853,E,075108.50,A,D*71
$PRDID,-0.1,-0.1,21.7*7D
$PSAT,HPR,075108.62,21.7,-0.1,-0.1,G*20
$GNRMC,075108.62,A,3753.0158590,N,13903.4320628,E,0.018,176.58,280221,,,R,V*1A
$GNVTG,176.58,T,,M,0.018,N,0.033,K,D*22
$GNGGA,075108.62,3753.0158590,N,13903.4320628,E,4,12,0.59,3.898,M,37.492,M,,0885*40
$GNGLL,3753.0158590,N,13903.4320628,E,075108.62,A,D*7E
$PRDID,-0.1,-0.1,21.7*7D
$PSAT,HPR,075108.74,21.7,-0.1,-0.1,G*27
$GNRMC,075108.75,A,3753.0158599,N,13903.4320619,E,0.011,176.58,280221,,,R,V*1E
$GNVTG,176.58,T,,M,0.011,N,0.021,K,D*28
$GNGGA,075108.75,3753.0158599,N,13903.4320619,E,4,12,0.59,3.890,M,37.492,M,,0885*45
$GNGLL,3753.0158599,N,13903.4320619,E,075108.75,A,D*73
$PRDID,-0.1,-0.1,21.6*7C
$PSAT,HPR,075108.87,21.6,-0.1,-0.1,G*2A
$GNRMC,075108.87,A,3753.0158600,N,13903.4320628,E,0.022,176.58,280221,,,R,V*12
$GNVTG,176.58,T,,M,0.022,N,0.041,K,D*2E
$GNGGA,075108.87,3753.0158600,N,13903.4320628,E,4,12,0.59,3.891,M,37.492,M,,0885*48
$GNGLL,3753.0158600,N,13903.4320628,E,075108.87,A,D*7F
$PRDID,-0.1,-0.1,21.6*7C
$PSAT,HPR,075109.00,21.6,-0.1,-0.1,G*24
$GNRMC,075109.00,A,3753.0158596,N,13903.4320624,E,0.016,176.58,280221,,,R,V*1B
$GNVTG,176.58,T,,M,0.016,N,0.030,K,D*2F
$GNGGA,075109.00,3753.0158596,N,13903.4320624,E,4,12,0.59,3.893,M,37.492,M,,0885*44
$GNGLL,3753.0158596,N,13903.4320624,E,075109.00,A,D*71
$PRDID,-0.1,-0.0,21.5*7E
$PSAT,HPR,075109.12,21.5,-0.1,-0.0,G*25
$GNRMC,075109.12,A,3753.0158606,N,13903.4320626,E,0.016,176.58,280221,,,R,V*10
$GNVTG,176.58,T,,M,0.016,N,0.030,K,D*2F
$GNGGA,075109.12,3753.0158606,N,13903.4320626,E,4,12,0.59,3.891,M,37.492,M,,0885*4D
$GNGLL,3753.0158606,N,13903.4320626,E,075109.12,A,D*7A
$PRDID,-0.1,-0.1,21.6*7C
$PSAT,HPR,075109.24,21.6,-0.1,-0.1,G*22
$GNRMC,075109.25,A,3753.0158598,N,13903.4320629,E,0.010,176.58,280221,,,R,V*19
$GNVTG,176.58,T,,M,0.010,N,0.019,K,D*22
$GNGGA,075109.25,3753.0158598,N,13903.4320629,E,4,12,0.59,3.891,M,37.492,M,,0885*42
$GNGLL,3753.0158598,N,13903.4320629,E,075109.25,A,D*75
$PRDID,-0.1,-0.1,21.6*7C
$PSAT,HPR,075109.37,21.6,-0.1,-0.1,G*20
$GNRMC,075109.37,A,3753.0158599,N,13903.4320622,E,0.018,176.58,280221,,,R,V*18
$GNVTG,176.58,T,,M,0.018,N,0.034,K,D*25
$GNGGA,075109.37,3753.0158599,N,13903.4320622,E,4,12,0.59,3.890,M,37.492,M,,0885*4A
$GNGLL,3753.0158599,N,13903.4320622,E,075109.37,A,D*7C
$PRDID,-0.1,-0.1,21.5*7F
$PSAT,HPR,075109.49,21.5,-0.1,-0.1,G*2A
$GNRMC,075109.50,A,3753.0158611,N,13903.4320629,E,0.046,176.58,280221,,,R,V*1A
$GNVTG,176.58,T,,M,0.046,N,0.086,K,D*27
$GNGGA,075109.50,3753.0158611,N,13903.4320629,E,4,12,0.59,3.893,M,37.492,M,,0885*40
$GNGLL,3753.0158611,N,13903.4320629,E,075109.50,A,D*75
$PRDID,-0.2,-0.0,21.6*7E
$PSAT,HPR,075109.62,21.6,-0.2,-0.0,G*22
$GNRMC,075109.62,A,3753.0158601,N,13903.4320637,E,0.016,176.58,280221,,,R,V*10
$GNVTG,176.58,T,,M,0.016,N,0.030,K,D*2F
$GNGGA,075109.62,3753.0158601,N,13903.4320637,E,4,12,0.59,3.892,M,37.492,M,,0885*4E
$GNGLL,3753.0158601,N,13903.4320637,E,075109.62,A,D*7A
$PRDID,-0.1,-0.1,21.6*7C
$PSAT,HPR,075109.74,21.6,-0.1,-0.1,G*27
$GNRMC,075109.75,A,3753.0158589,N,13903.4320620,E,0.050,176.58,280221,,,R,V*11
$GNVTG,176.58,T,,M,0.050,N,0.092,K,D*25
$GNGGA,075109.75,3753.0158589,N,13903.4320620,E,4,12,0.59,3.892,M,37.492,M,,0885*4D
$GNGLL,3753.0158589,N,13903.4320620,E,075109.75,A,D*79
$PRDID,-0.1,-0.1,21.5*7F
$PSAT,HPR,075109.87,21.5,-0.1,-0.1,G*28
$GNRMC,075109.87,A,3753.0158595,N,13903.4320623,E,0.009,176.58,280221,,,R,V*1E
$GNVTG,176.58,T,,M,0.009,N,0.016,K,D*25
$GNGGA,075109.87,3753.0158595,N,13903.4320623,E,4,12,0.59,3.894,M,37.492,M,,0885*48
$GNGLL,3753.0158595,N,13903.4320623,E,075109.87,A,D*7A
$PRDID,-0.1,-0.0,21.5*7E
$PSAT,HPR,075110.00,21.5,-0.1,-0.0,G*2E
$GNRMC,075110.00,A,3753.0158603,N,13903.4320633,E,0.035,176.58,280221,,,R,V*1B
$GNVTG,176.58,T,,M,0.035,N,0.064,K,D*2F
$GNGGA,075110.00,3753.0158603,N,13903.4320633,E,4,12,0.59,3.893,M,37.492,M,,0885*45
$GNGLL,3753.0158603,N,13903.4320633,E,075110.00,A,D*70
$PRDID,-0.2,-0.1,21.5*7C
$PSAT,HPR,075110.12,21.5,-0.2,-0.1,G*2F
$GNRMC,075110.12,A,3753.0158600,N,13903.4320637,E,0.006,176.58,280221,,,R,V*1F
$GNVTG,176.58,T,,M,0.006,N,0.011,K,D*2D
$GNGGA,075110.12,3753.0158600,N,13903.4320637,E,4,12,0.59,3.893,M,37.492,M,,0885*41
$GNGLL,3753.0158600,N,13903.4320637,E,075110.12,A,D*74
$PRDID,-0.1,-0.1,21.6*7C
$PSAT,HPR,075110.24,21.6,-0.1,-0.1,G*2A
$GNRMC,075110.25,A,3753.0158596,N,13903.4320634,E,0.015,176.58,280221,,,R,V*16
$GNVTG,176.58,T,,M,0.015,N,0.028,K,D*25
$GNGGA,075110.25,3753.0158596,N,13903.4320634,E,4,12,0.59,3.891,M,37.492,M,,0885*48
$GNGLL,3753.0158596,N,13903.4320634,E,075110.25,A,D*7F
$PRDID,-0.1,-0.1,21.5*7F
$PSAT,HPR,075110.37,21.5,-0.1,-0.1,G*2B
$GNRMC,075110.37,A,3753.0158602,N,13903.4320623,E,0.020,176.58,280221,,,R,V*1B
$GNVTG,176.58,T,,M,0.020,N,0.037,K,D*2D
$GNGGA,075110.37,3753.0158602,N,13903.4320623,E,4,12,0.59,3.890,M,37.492,M,,0885*42
$GNGLL,3753.0158602,N,13903.4320623,E,075110.37,A,D*74
$PRDID,-0.1,-0.1,21.6*7C
$PSAT,HPR,075110.49,21.6,-0.1,-0.1,G*21
$GNRMC,075110.50,A,3753.0158603,N,13903.4320634,E,0.012,176.58,280221,,,R,V*1C
$GNVTG,176.58,T,,M,0.012,N,0.022,K,D*28
$GNGGA,075110.50,3753.0158603,N,13903.4320634,E,4,12,0.59,3.892,M,37.492,M,,0885*46
$GNGLL,3753.0158603,N,13903.4320634,E,075110.50,A,D*72
$PRDID,-0.1,-0.1,21.7*7D
$PSAT,HPR,075110.62,21.7,-0.1,-0.1,G*29
$GNRMC,075110.62,A,3753.0158597,N,13903.4320637,E,0.009,176.58,280221,,,R,V*1A
$GNVTG,176.58,T,,M,0.009,N,0.017,K,D*24
$GNGGA,075110.62,3753.0158597,N,13903.4320637,E,4,12,0.59,3.892,M,37.492,M,,0885*4A
$GNGLL,3753.0158597,N,13903.4320637,E,075110.62,A,D*7E
$PRDID,-0.1,-0.1,21.8*72
$PSAT,HPR,075110.74,21.8,-0.1,-0.1,G*21
$GNRMC,075110.75,A,3753.0158600,N,13903.4320633,E,0.004,176.58,280221,,,R,V*18
$GNVTG,176.58,T,,M,0.004,N,0.007,K,D*28
$GNGGA,075110.75,3753.0158600,N,13903.4320633,E,4,12,0.59,3.891,M,37.492,M,,0885*46
$GNGLL,3753.0158600,N,13903.4320633,E,075110.75,A,D*71
$PRDID,-0.1,-0.1,21.7*7D
$PSAT,HPR,075110.87,21.7,-0.1,-0.1,G*22
$GNRMC,075110.87,A,3753.0158596,N,13903.4320633,E,0.015,176.58,280221,,,R,V*19
$GNVTG,176.58,T,,M,0.015,N,0.027,K,D*2A
$GNGGA,075110.87,3753.0158596,N,13903.4320633,E,4,12,0.59,3.891,M,37.492,M,,0885*47
$GNGLL,3753.0158596,N,13903.4320633,E,075110.87,A,D*70
$PRDID,-0.1,-0.1,21.7*7D
$PSAT,HPR,075111.00,21.7,-0.1,-0.1,G*2C
$GNRMC,075111.00,A,3753.0158602,N,13903.4320631,E,0.017,176.58,280221,,,R,V*19
$GNVTG,176.58,T,,M,0.017,N,0.032,K,D*2C
$GNGGA,075111.00,3753.0158602,N,13903.4320631,E,4,12,0.59,3.891,M,37.492,M,,0885*45
$GNGLL,3753.0158602,N,13903.4320631,E,075111.00,A,D*72
$PRDID,-0.1,-0.1,21.7*7D
$PSAT,HPR,075111.12,21.7,-0.1,-0.1,G*2F
$GNRMC,075111.12,A,3753.0158603,N,13903.4320633,E,0.011,176.58,280221,,,R,V*1F
$GNVTG,176.58,T,,M,0.011,N,0.020,K,D*29
$GNGGA,075111.12,3753.0158603,N,13903.4320633,E,4,12,0.59,3.890,M,37.492,M,,0885*44
$GNGLL,3753.0158603,N,13903.4320633,E,075111.12,A,D*72
$PRDID,-0.1,-0.1,21.7*7D
$PSAT,HPR,075111.24,21.7,-0.1,-0.1,G*2A
$GNRMC,075111.25,A,3753.0158593,N,13903.4320635,E,0.019,176.58,280221,,,R,V*1F
$GNVTG,176.58,T,,M,0.019,N,0.034,K,D*24
$GNGGA,075111.25,3753.0158593,N,13903.4320635,E,4,12,0.59,3.889,M,37.492,M,,0885*44
$GNGLL,3753.0158593,N,13903.4320635,E,075111.25,A,D*7A
$PRDID,-0.1,-0.1,21.8*72
$PSAT,HPR,075111.37,21.8,-0.1,-0.1,G*27
$GNRMC,075111.37,A,3753.0158604,N,13903.4320627,E,0.017,176.58,280221,,,R,V*1C
$GNVTG,176.58,T,,M,0.017,N,0.031,K,D*2F
$GNGGA,075111.37,3753.0158604,N,13903.4320627,E,4,12,0.59,3.891,M,37.492,M,,0885*40
$GNGLL,3753.0158604,N,13903.4320627,E,075111.37,A,D*77
$PRDID,-0.1,-0.1,21.9*73
$PSAT,HPR,075111.49,21.9,-0.1,-0.1,G*2F
$GNRMC,075111.50,A,3753.0158596,N,13903.4320640,E,0.026,176.58,280221,,,R,V*16
$GNVTG,176.58,T,,M,0.026,N,0.048,K,D*23
$GNGGA,075111.50,3753.0158596,N,13903.4320640,E,4,12,0.59,3.889,M,37.492,M,,0885*41
$GNGLL,3753.0158596,N,13903.4320640,E,075111.50,A,D*7F
$PRDID,-0.1,-0.1,21.9*73
$PSAT,HPR,075111.62,21.9,-0.1,-0.1,G*26
$GNRMC,075111.62,A,3753.0158604,N,13903.4320633,E,0.015,176.58,280221,,,R,V*1B
$GNVTG,176.58,T,,M,0.015,N,0.029,K,D*24
$GNGGA,075111.62,3753.0158604,N,13903.4320633,E,4,12,0.59,3.889,M,37.492,M,,0885*4C
$GNGLL,3753.0158604,N,13903.4320633,E,075111.62,A,D*72
$PRDID,-0.1,-0.0,21.9*72
$PSAT,HPR,075111.74,21.9,-0.1,-0.0,G*20
$GNRMC,075111.75,A,3753.0158598,N,13903.4320633,E,0.008,176.58,280221,,,R,V*17
$GNVTG,176.58,T,,M,0.008,N,0.015,K,D*27
$GNGGA,075111.75,3753.0158598,N,13903.4320633,E,4,12,0.59,3.890,M,37.492,M,,0885*44
$GNGLL,3753.0158598,N,13903.4320633,E,075111.75,A,D*72
$PRDID,-0.1,-0.0,22.0*78
$PSAT,HPR,075111.87,22.0,-0.1,-0.0,G*26
$GNRMC,075111.87,A,3753.0158613,N,13903.4320629,E,0.017,176.58,280221,,,R,V*1F
$GNVTG,176.58,T,,M,0.017,N,0.031,K,D*2F
$GNGGA,075111.87,3753.0158613,N,13903.4320629,E,4,12,0.59,3.891,M,37.492,M,,0885*43
$GNGLL,3753.0158613,N,13903.4320629,E,075111.87,A,D*74
$PRDID,-0.2,-0.0,21.9*71
$PSAT,HPR,075112.00,21.9,-0.2,-0.0,G*23
$GNRMC,075112.00,A,3753.0158610,N,13903.4320624,E,0.010,176.58,280221,,,R,V*1A
$GNVTG,176.58,T,,M,0.010,N,0.018,K,D*23
$GNGGA,075112.00,3753.0158610,N,13903.4320624,E,4,12,0.59,3.895,M,37.492,M,,0885*45
$GNGLL,3753.0158610,N,13903.4320624,E,075112.00,A,D*76
$PRDID,-0.1,-0.1,22.0*79
$PSAT,HPR,075112.12,22.0,-0.1,-0.1,G*28
$GNRMC,075112.12,A,3753.0158600,N,13903.4320627,E,0.029,176.58,280221,,,R,V*11
$GNVTG,176.58,T,,M,0.029,N,0.054,K,D*21
$GNGGA,075112.12,3753.0158600,N,13903.4320627,E,4,12,0.59,3.893,M,37.492,M,,0885*42
$GNGLL,3753.0158600,N,13903.4320627,E,075112.12,A,D*77
$PRDID,-0.1,-0.1,21.9*73
$PSAT,HPR,075112.24,21.9,-0.1,-0.1,G*27
$GNRMC,075112.25,A,3753.0158611,N,13903.4320624,E,0.039,176.58,280221,,,R,V*17
$GNVTG,176.58,T,,M,0.039,N,0.072,K,D*24
$GNGGA,075112.25,3753.0158611,N,13903.4320624,E,4,12,0.59,3.893,M,37.492,M,,0885*45
$GNGLL,3753.0158611,N,13903.4320624,E,075112.25,A,D*70
$PRDID,-0.2,-0.0,21.9*71
$PSAT,HPR,075112.37,21.9,-0.2,-0.0,G*27
$GNRMC,075112.37,A,3753.0158607,N,13903.4320636,E,0.039,176.58,280221,,,R,V*10
$GNVTG,176.58,T,,M,0.039,N,0.073,K,D*25
$GNGGA,075112.37,3753.0158607,N,13903.4320636,E,4,12,0.59,3.891,M,37.492,M,,0885*40
$GNGLL,3753.0158607,N,13903.4320636,E,075112.37,A,D*77
$PRDID,-0.2,-0.0,22.0*7B
$PSAT,HPR,075112.49,22.0,-0.2,-0.0,G*24
$GNRMC,075112.50,A,3753.0158611,N,13903.4320626,E,0.039,176.58,280221,,,R,V*17
$GNVTG,176.58,T,,M,0.039,N,0.072,K,D*24
$GNGGA,075112.50,3753.0158611,N,13903.4320626,E,4,12,0.59,3.893,M,37.492,M,,0885*45
$GNGLL,3753.0158611,N,13903.4320626,E,075112.50,A,D*70
$PRDID,-0.1,-0.1,22.0*79
$PSAT,HPR,075112.62,22.0,-0.1,-0.1,G*2F
$GNRMC,075112.62,A,3753.0158610,N,13903.4320627,E,0.023,176.58,280221,,,R,V*1D
$GNVTG,176.58,T,,M,0.023,N,0.042,K,D*2C
$GNGGA,075112.62,3753.0158610,N,13903.4320627,E,4,12,0.59,3.890,M,37.492,M,,0885*47
$GNGLL,3753.0158610,N,13903.4320627,E,075112.62,A,D*71
$PRDID,-0.1,-0.0,22.0*78
$PSAT,HPR,075112.74,22.0,-0.1,-0.0,G*29
$GNRMC,075112.75,A,3753.0158612,N,13903.4320631,E,0.037,176.58,280221,,,R,V*1B
$GNVTG,176.58,T,,M,0.037,N,0.069,K,D*20
$GNGGA,075112.75,3753.0158612,N,13903.4320631,E,4,12,0.59,3.894,M,37.492,M,,0885*40
$GNGLL,3753.0158612,N,13903.4320631,E,075112.75,A,D*72
$PRDID,-0.2,-0.0,22.1*7A
$PSAT,HPR,075112.87,22.1,-0.2,-0.0,G*27
$GNRMC,075112.87,A,3753.0158608,N,13903.4320624,E,0.015,176.58,280221,,,R,V*19
$GNVTG,176.58,T,,M,0.015,N,0.028,K,D*25
$GNGGA,075112.87,3753.0158608,N,13903.4320624,E,4,12,0.59,3.892,M,37.492,M,,0885*44
$GNGLL,3753.0158608,N,13903.4320624,E,075112.87,A,D*70
$PRDID,-0.1,-0.0,22.1*79
$PSAT,HPR,075113.00,22.1,-0.1,-0.0,G*2A
$GNRMC,075113.00,A,3753.0158606,N,13903.4320610,E,0.022,176.58,280221,,,R,V*1A
$GNVTG,176.58,T,,M,0.022,N,0.040,K,D*2F
$GNGGA,075113.00,3753.0158606,N,13903.4320610,E,4,12,0.59,3.892,M,37.492,M,,0885*43
$GNGLL,3753.0158606,N,13903.4320610,E,075113.00,A,D*77
$PRDID,-0.1,-0.0,22.2*7A
$PSAT,HPR,075113.12,22.2,-0.1,-0.0,G*2A
$GNRMC,075113.12,A,3753.0158606,N,13903.4320614,E,0.006,176.58,280221,,,R,V*1B
$GNVTG,176.58,T,,M,0.006,N,0.011,K,D*2D
$GNGGA,075113.12,3753.0158606,N,13903.4320614,E,4,12,0.59,3.894,M,37.492,M,,0885*42
$GNGLL,3753.0158606,N,13903.4320614,E,075113.12,A,D*70
$PRDID,-0.1,-0.0,22.3*7B
$PSAT,HPR,075113.24,22.3,-0.1,-0.0,G*2E
$GNRMC,075113.25,A,3753.0158605,N,13903.4320614,E,0.009,176.58,280221,,,R,V*13
$GNVTG,176.58,T,,M,0.009,N,0.017,K,D*24
$GNGGA,075113.25,3753.0158605,N,13903.4320614,E,4,12,0.59,3.891,M,37.492,M,,0885*40
$GNGLL,3753.0158605,N,13903.4320614,E,075113.25,A,D*77
$PRDID,-0.2,-0.0,22.3*78
$PSAT,HPR,075113.37,22.3,-0.2,-0.0,G*2F
$GNRMC,075113.37,A,3753.0158605,N,13903.4320620,E,0.017,176.58,280221,,,R,V*18
$GNVTG,176.58,T,,M,0.017,N,0.032,K,D*2C
$GNGGA,075113.37,3753.0158605,N,13903.4320620,E,4,12,0.59,3.894,M,37.492,M,,0885*41
$GNGLL,3753.0158605,N,13903.4320620,E,075113.37,A,D*73
$PRDID,-0.2,0.0,22.4*52
$PSAT,HPR,075113.49,22.4,-0.2,0.0,G*0C
$GNRMC,075113.50,A,3753.0158615,N,13903.4320610,E,0.039,176.58,280221,,,R,V*17
$GNVTG,176.58,T,,M,0.039,N,0.072,K,D*24
$GNGGA,075113.50,3753.0158615,N,13903.4320610,E,4,12,0.59,3.892,M,37.492,M,,0885*44
$GNGLL,3753.0158615,N,13903.4320610,E,075113.50,A,D*70
$PRDID,-0.1,0.0,22.4*51
$PSAT,HPR,075113.62,22.4,-0.1,0.0,G*06
$GNRMC,075113.62,A,3753.0158613,N,13903.4320616,E,0.004,176.58,280221,,,R,V*18
$GNVTG,176.58,T,,M,0.004,N,0.008,K,D*27
$GNGGA,075113.62,3753.0158613,N,13903.4320616,E,4,12,0.59,3.893,M,37.492,M,,0885*44
$GNGLL,3753.0158613,N,13903.4320616,E,075113.62,A,D*71
$PRDID,-0.1,-0.0,22.4*7C
$PSAT,HPR,075113.74,22.4,-0.1,-0.0,G*2C
$GNRMC,075113.75,A,3753.0158607,N,13903.4320618,E,0.026,176.58,280221,,,R,V*15
$GNVTG,176.58,T,,M,0.026,N,0.049,K,D*22
$GNGGA,075113.75,3753.0158607,N,13903.4320618,E,4,12,0.59,3.892,M,37.492,M,,0885*48
$GNGLL,3753.0158607,N,13903.4320618,E,075113.75,A,D*7C
$PRDID,-0.1,-0.0,22.4*7C
$PSAT,HPR,075113.87,22.4,-0.1,-0.0,G*20
$GNRMC,075113.87,A,3753.0158613,N,13903.4320617,E,0.029,176.58,280221,,,R,V*1D
$GNVTG,176.58,T,,M,0.029,N,0.054,K,D*21
$GNGGA,075113.87,3753.0158613,N,13903.4320617,E,4,12,0.59,3.894,M,37.492,M,,0885*49
$GNGLL,3753.0158613,N,13903.4320617,E,075113.87,A,D*7B
$PRDID,-0.1,-0.0,22.4*7C
$PSAT,HPR,075114.00,22.4,-0.1,-0.0,G*28
$GNRMC,075114.00,A,3753.0158602,N,13903.4320614,E,0.023,176.58,280221,,,R,V*1C
$GNVTG,176.58,T,,M,0.023,N,0.042,K,D*2C
$GNGGA,075114.00,3753.0158602,N,13903.4320614,E,4,12,0.59,3.896,M,37.492,M,,0885*40
$GNGLL,3753.0158602,N,13903.4320614,E,075114.00,A,D*70
$PRDID,-0.1,-0.0,22.2*7A
$PSAT,HPR,075114.12,22.2,-0.1,-0.0,G*2D
$GNRMC,075114.12,A,3753.0158610,N,13903.4320617,E,0.017,176.58,280221,,,R,V*18
$GNVTG,176.58,T,,M,0.017,N,0.031,K,D*2F
$GNGGA,075114.12,3753.0158610,N,13903.4320617,E,4,12,0.59,3.895,M,37.492,M,,0885*40
$GNGLL,3753.0158610,N,13903.4320617,E,075114.12,A,D*73
$PRDID,-0.2,-0.0,22.1*7A
$PSAT,HPR,075114.24,22.1,-0.2,-0.0,G*28
$GNRMC,075114.25,A,3753.0158608,N,13903.4320623,E,0.011,176.58,280221,,,R,V*14
$GNVTG,176.58,T,,M,0.011,N,0.020,K,D*29
$GNGGA,075114.25,3753.0158608,N,13903.4320623,E,4,12,0.59,3.894,M,37.492,M,,0885*4B
$GNGLL,3753.0158608,N,13903.4320623,E,075114.25,A,D*79
$PRDID,-0.1,0.0,22.0*55
$PSAT,HPR,075114.37,22.0,-0.1,0.0,G*05
$GNRMC,075114.37,A,3753.0158610,N,13903.4320607,E,0.024,176.58,280221,,,R,V*1E
$GNVTG,176.58,T,,M,0.024,N,0.045,K,D*2C
$GNGGA,075114.37,3753.0158610,N,13903.4320607,E,4,12,0.59,3.896,M,37.492,M,,0885*45
$GNGLL,3753.0158610,N,13903.4320607,E,075114.37,A,D*75
$PRDID,-0.1,0.0,21.9*5F
$PSAT,HPR,075114.49,21.9,-0.1,0.0,G*06
$GNRMC,075114.50,A,3753.0158611,N,13903.4320616,E,0.028,176.58,280221,,,R,V*12
$GNVTG,176.58,T,,M,0.028,N,0.053,K,D*27
$GNGGA,075114.50,3753.0158611,N,13903.4320616,E,4,12,0.59,3.896,M,37.492,M,,0885*45
$GNGLL,3753.0158611,N,13903.4320616,E,075114.50,A,D*75
$PRDID,-0.1,-0.0,21.8*73
$PSAT,HPR,075114.62,21.8,-0.1,-0.0,G*23
$GNRMC,075114.62,A,3753.0158614,N,13903.4320613,E,0.011,176.58,280221,,,R,V*19
$GNVTG,176.58,T,,M,0.011,N,0.020,K,D*29
$GNGGA,075114.62,3753.0158614,N,13903.4320613,E,4,12,0.59,3.895,M,37.492,M,,0885*47
$GNGLL,3753.0158614,N,13903.4320613,E,075114.62,A,D*74
$PRDID,-0.1,0.0,21.8*5E
$PSAT,HPR,075114.74,21.8,-0.1,0.0,G*09
$GNRMC,075114.75,A,3753.0158612,N,13903.4320618,E,0.007,176.58,280221,,,R,V*15
$GNVTG,176.58,T,,M,0.007,N,0.013,K,D*2E
$GNGGA,075114.75,3753.0158612,N,13903.4320618,E,4,12,0.59,3.893,M,37.492,M,,0885*4A
$GNGLL,3753.0158612,N,13903.4320618,E,075114.75,A,D*7F
$PRDID,-0.1,0.0,21.7*51
$PSAT,HPR,075114.87,21.7,-0.1,0.0,G*0A
$GNRMC,075114.87,A,3753.0158613,N,13903.4320614,E,0.015,176.58,280221,,,R,V*16
$GNVTG,176.58,T,,M,0.015,N,0.028,K,D*25
$GNGGA,075114.87,3753.0158613,N,13903.4320614,E,4,12,0.59,3.894,M,37.492,M,,0885*4D
$GNGLL,3753.0158613,N,13903.4320614,E,075114.87,A,D*7F
$PRDID,-0.1,-0.1,21.6*7C
$PSAT,HPR,075115.00,21.6,-0.1,-0.1,G*29
$GNRMC,075115.00,A,3753.0158611,N,13903.4320617,E,0.006,176.58,280221,,,R,V*1B
$GNVTG,176.58,T,,M,0.006,N,0.012,K,D*2E
$GNGGA,075115.00,3753.0158611,N,13903.4320617,E,4,12,0.59,3.895,M,37.492,M,,0885*43
$GNGLL,3753.0158611,N,13903.4320617,E,075115.00,A,D*70
$PRDID,-0.1,-0.0,21.6*7D
$PSAT,HPR,075115.12,21.6,-0.1,-0.0,G*2B
$GNRMC,075115.12,A,3753.0158613,N,13903.4320624,E,0.027,176.58,280221,,,R,V*19
$GNVTG,176.58,T,,M,0.027,N,0.051,K,D*2A
$GNGGA,075115.12,3753.0158613,N,13903.4320624,E,4,12,0.59,3.895,M,37.492,M,,0885*42
$GNGLL,3753.0158613,N,13903.4320624,E,075115.12,A,D*71
$PRDID,-0.1,-0.1,21.6*7C
$PSAT,HPR,075115.24,21.6,-0.1,-0.1,G*2F
$GNRMC,075115.25,A,3753.0158615,N,13903.4320613,E,0.012,176.58,280221,,,R,V*19
$GNVTG,176.58,T,,M,0.012,N,0.023,K,D*29
$GNGGA,075115.25,3753.0158615,N,13903.4320613,E,4,12,0.59,3.889,M,37.492,M,,0885*49
$GNGLL,3753.0158615,N,13903.4320613,E,075115.25,A,D*77
$PRDID,-0.1,-0.0,21.9*72
$PSAT,HPR,075115.37,21.9,-0.1,-0.0,G*23
$GNRMC,075115.37,A,3753.0158624,N,13903.4320614,E,0.018,176.58,280221,,,R,V*15
$GNVTG,176.58,T,,M,0.018,N,0.034,K,D*25
$GNGGA,075115.37,3753.0158624,N,13903.4320614,E,4,12,0.59,3.889,M,37.492,M,,0885*4F
$GNGLL,3753.0158624,N,13903.4320614,E,075115.37,A,D*71
$PRDID,-0.1,-0.0,22.1*79
$PSAT,HPR,075115.49,22.1,-0.1,-0.0,G*21
$GNRMC,075115.50,A,3753.0158620,N,13903.4320615,E,0.018,176.58,280221,,,R,V*11
$GNVTG,176.58,T,,M,0.018,N,0.034,K,D*25
$GNGGA,075115.50,3753.0158620,N,13903.4320615,E,4,12,0.59,3.889,M,37.492,M,,0885*4B
$GNGLL,3753.0158620,N,13903.4320615,E,075115.50,A,D*75
$PRDID,-0.1,-0.0,22.2*7A
$PSAT,HPR,075115.62,22.2,-0.1,-0.0,G*2B
$GNRMC,075115.62,A,3753.0158620,N,13903.4320620,E,0.022,176.58,280221,,,R,V*1F
$GNVTG,176.58,T,,M,0.022,N,0.040,K,D*2F
$GNGGA,075115.62,3753.0158620,N,13903.4320620,E,4,12,0.59,3.889,M,37.492,M,,0885*4C
$GNGLL,3753.0158620,N,13903.4320620,E,075115.62,A,D*72
$PRDID,-0.1,-0.0,22.3*7B
$PSAT,HPR,075115.74,22.3,-0.1,-0.0,G*2D
$GNRMC,075115.75,A,3753.0158619,N,13903.4320614,E,0.016,176.58,280221,,,R,V*13
$GNVTG,176.58,T,,M,0.016,N,0.030,K,D*2F
$GNGGA,075115.75,3753.0158619,N,13903.4320614,E,4,12,0.59,3.888,M,37.492,M,,0885*46
$GNGLL,3753.0158619,N,13903.4320614,E,075115.75,A,D*79
$PRDID,-0.1,-0.0,22.3*7B
$PSAT,HPR,075115.87,22.3,-0.1,-0.0,G*21
$GNRMC,075115.87,A,3753.0158623,N,13903.4320618,E,0.022,176.58,280221,,,R,V*1C
$GNVTG,176.58,T,,M,0.022,N,0.040,K,D*2F
$GNGGA,075115.87,3753.0158623,N,13903.4320618,E,4,12,0.59,3.889,M,37.492,M,,0885*4F
$GNGLL,3753.0158623,N,13903.4320618,E,075115.87,A,D*71
$PRDID,-0.1,-0.0,22.4*7C
$PSAT,HPR,075116.00,22.4,-0.1,-0.0,G*2A
$GNRMC,075116.00,A,3753.0158621,N,13903.4320617,E,0.020,176.58,280221,,,R,V*1F
$GNVTG,176.58,T,,M,0.020,N,0.037,K,D*2D
$GNGGA,075116.00,3753.0158621,N,13903.4320617,E,4,12,0.59,3.889,M,37.492,M,,0885*4E
$GNGLL,3753.0158621,N,13903.4320617,E,075116.00,A,D*70
$PRDID,-0.1,-0.1,22.5*7C
$PSAT,HPR,075116.12,22.5,-0.1,-0.1,G*29
$GNRMC,075116.12,A,3753.0158626,N,13903.4320616,E,0.016,176.58,280221,,,R,V*1F
$GNVTG,176.58,T,,M,0.016,N,0.031,K,D*2E
$GNGGA,075116.12,3753.0158626,N,13903.4320616,E,4,12,0.59,3.888,M,37.492,M,,0885*4A
$GNGLL,3753.0158626,N,13903.4320616,E,075116.12,A,D*75
$PRDID,-0.1,-0.0,22.5*7D
$PSAT,HPR,075116.24,22.5,-0.1,-0.0,G*2D
$GNRMC,075116.25,A,3753.0158629,N,13903.4320620,E,0.019,176.58,280221,,,R,V*1E
$GNVTG,176.58,T,,M,0.019,N,0.035,K,D*25
$GNGGA,075116.25,3753.0158629,N,13903.4320620,E,4,12,0.59,3.889,M,37.492,M,,0885*45
$GNGLL,3753.0158629,N,13903.4320620,E,075116.25,A,D*7B
$PRDID,-0.1,-0.0,22.4*7C
$PSAT,HPR,075116.37,22.4,-0.1,-0.0,G*2E
$GNRMC,075116.37,A,3753.0158621,N,13903.4320619,E,0.011,176.58,280221,,,R,V*17
$GNVTG,176.58,T,,M,0.011,N,0.020,K,D*29
$GNGGA,075116.37,3753.0158621,N,13903.4320619,E,4,12,0.59,3.890,M,37.492,M,,0885*4C
$GNGLL,3753.0158621,N,13903.4320619,E,075116.37,A,D*7A
$PRDID,-0.1,-0.0,22.4*7C
$PSAT,HPR,075116.49,22.4,-0.1,-0.0,G*27
$GNRMC,075116.50,A,3753.0158626,N,13903.4320613,E,0.005,176.58,280221,,,R,V*1E
$GNVTG,176.58,T,,M,0.005,N,0.009,K,D*27
$GNGGA,075116.50,3753.0158626,N,13903.4320613,E,4,12,0.59,3.887,M,37.492,M,,0885*46
$GNGLL,3753.0158626,N,13903.4320613,E,075116.50,A,D*76
$PRDID,-0.1,-0.0,22.4*7C
$PSAT,HPR,075116.62,22.4,-0.1,-0.0,G*2E
$GNRMC,075116.62,A,3753.0158628,N,13903.4320624,E,0.016,176.58,280221,,,R,V*17
$GNVTG,176.58,T,,M,0.016,N,0.030,K,D*2F
$GNGGA,075116.62,3753.0158628,N,13903.4320624,E,4,12,0.59,3.891,M,37.492,M,,0885*4A
$GNGLL,3753.0158628,N,13903.4320624,E,075116.62,A,D*7D
$PRDID,-0.1,-0.0,22.5*7D
$PSAT,HPR,075116.74,22.5,-0.1,-0.0,G*28
$GNRMC,075116.75,A,3753.0158633,N,13903.4320616,E,0.019,176.58,280221,,,R,V*15
$GNVTG,176.58,T,,M,0.019,N,0.035,K,D*25
$GNGGA,075116.75,3753.0158633,N,13903.4320616,E,4,12,0.59,3.889,M,37.492,M,,0885*4E
$GNGLL,3753.0158633,N,13903.4320616,E,075116.75,A,D*70
$PRDID,-0.1,-0.0,22.5*7D
$PSAT,HPR,075116.87,22.5,-0.1,-0.0,G*24
$GNRMC,075116.87,A,3753.0158629,N,13903.4320611,E,0.017,176.58,280221,,,R,V*1A
$GNVTG,176.58,T,,M,0.017,N,0.031,K,D*2F
$GNGGA,075116.87,3753.0158629,N,13903.4320611,E,4,12,0.59,3.888,M,37.492,M,,0885*4E
$GNGLL,3753.0158629,N,13903.4320611,E,075116.87,A,D*71
$PRDID,-0.1,-0.0,22.5*7D
$PSAT,HPR,075117.00,22.5,-0.1,-0.0,G*2A
$GNRMC,075117.00,A,3753.0158633,N,13903.4320615,E,0.021,176.58,280221,,,R,V*1E
$GNVTG,176.58,T,,M,0.021,N,0.038,K,D*23
$GNGGA,075117.00,3753.0158633,N,13903.4320615,E,4,12,0.59,3.889,M,37.492,M,,0885*4E
$GNGLL,3753.0158633,N,13903.4320615,E,075117.00,A,D*70
$PRDID,-0.1,-0.0,22.5*7D
$PSAT,HPR,075117.12,22.5,-0.1,-0.0,G*29
$GNRMC,075117.12,A,3753.0158635,N,13903.4320608,E,0.011,176.58,280221,,,R,V*14
$GNVTG,176.58,T,,M,0.011,N,0.020,K,D*29
$GNGGA,075117.12,3753.0158635,N,13903.4320608,E,4,12,0.59,3.890,M,37.492,M,,0885*4F
$GNGLL,3753.0158635,N,13903.4320608,E,075117.12,A,D*79
$PRDID,-0.1,-0.0,22.5*7D
$PSAT,HPR,075117.24,22.5,-0.1,-0.0,G*2C
$GNRMC,075117.25,A,3753.0158635,N,13903.4320614,E,0.008,176.58,280221,,,R,V*15
$GNVTG,176.58,T,,M,0.008,N,0.015,K,D*27
$GNGGA,075117.25,3753.0158635,N,13903.4320614,E,4,12,0.59,3.887,M,37.492,M,,0885*40
$GNGLL,3753.0158635,N,13903.4320614,E,075117.25,A,D*70
$PRDID,-0.1,-0.0,22.6*7E
$PSAT,HPR,075117.37,22.6,-0.1,-0.0,G*2D
$GNRMC,075117.37,A,3753.0158633,N,13903.4320603,E,0.005,176.58,280221,,,R,V*1B
$GNVTG,176.58,T,,M,0.005,N,0.009,K,D*27
$GNGGA,075117.37,3753.0158633,N,13903.4320603,E,4,12,0.59,3.894,M,37.492,M,,0885*41
$GNGLL,3753.0158633,N,13903.4320603,E,075117.37,A,D*73
$PRDID,-0.1,-0.0,22.7*7F
$PSAT,HPR,075117.49,22.7,-0.1,-0.0,G*25
$GNRMC,075117.50,A,3753.0158624,N,13903.4320609,E,0.035,176.58,280221,,,R,V*15
$GNVTG,176.58,T,,M,0.035,N,0.065,K,D*2E
$GNGGA,075117.50,3753.0158624,N,13903.4320609,E,4,12,0.59,3.896,M,37.492,M,,0885*4E
$GNGLL,3753.0158624,N,13903.4320609,E,075117.50,A,D*7E
$PRDID,-0.1,-0.0,22.7*7F
$PSAT,HPR,075117.62,22.7,-0.1,-0.0,G*2C
$GNRMC,075117.62,A,3753.0158624,N,13903.4320611,E,0.037,176.58,280221,,,R,V*1F
$GNVTG,176.58,T,,M,0.037,N,0.069,K,D*20
$GNGGA,075117.62,3753.0158624,N,13903.4320611,E,4,12,0.59,3.896,M,37.492,M,,0885*46
$GNGLL,3753.0158624,N,13903.4320611,E,075117.62,A,D*76
$PRDID,-0.1,0.0,22.8*5D
$PSAT,HPR,075117.74,22.8,-0.1,0.0,G*09
$GNRMC,075117.75,A,3753.0158623,N,13903.4320609,E,0.004,176.58,280221,,,R,V*17
$GNVTG,176.58,T,,M,0.004,N,0.007,K,D*28
$GNGGA,075117.75,3753.0158623,N,13903.4320609,E,4,12,0.59,3.897,M,37.492,M,,0885*4F
$GNGLL,3753.0158623,N,13903.4320609,E,075117.75,A,D*7E
$PRDID,-0.1,0.0,22.7*52
$PSAT,HPR,075117.87,22.7,-0.1,0.0,G*0A
$GNRMC,075117.87,A,3753.0158623,N,13903.4320614,E,0.007,176.58,280221,,,R,V*15
$GNVTG,176.58,T,,M,0.007,N,0.014,K,D*29
$GNGGA,075117.87,3753.0158623,N,13903.4320614,E,4,12,0.59,3.896,M,37.492,M,,0885*4F
$GNGLL,3753.0158623,N,13903.4320614,E,075117.87,A,D*7F
$PRDID,-0.1,0.0,22.7*52
$PSAT,HPR,075118.00,22.7,-0.1,0.0,G*0A
$GNRMC,075118.00,A,3753.0158626,N,13903.4320609,E,0.013,176.58,280221,,,R,V*19
$GNVTG,176.58,T,,M,0.013,N,0.024,K,D*2F
$GNGGA,075118.00,3753.0158626,N,13903.4320609,E,4,12,0.59,3.898,M,37.492,M,,0885*48
$GNGLL,3753.0158626,N,13903.4320609,E,075118.00,A,D*76
$PRDID,-0.1,-0.0,22.8*70
$PSAT,HPR,075118.12,22.8,-0.1,-0.0,G*2B
$GNRMC,075118.12,A,3753.0158626,N,13903.4320608,E,0.006,176.58,280221,,,R,V*1F
$GNVTG,176.58,T,,M,0.006,N,0.011,K,D*2D
$GNGGA,075118.12,3753.0158626,N,13903.4320608,E,4,12,0.59,3.897,M,37.492,M,,0885*45
$GNGLL,3753.0158626,N,13903.4320608,E,075118.12,A,D*74
$PRDID,-0.1,0.0,22.7*52
$PSAT,HPR,075118.24,22.7,-0.1,0.0,G*0C
$GNRMC,075118.25,A,3753.0158626,N,13903.4320607,E,0.014,176.58,280221,,,R,V*17
$GNVTG,176.58,T,,M,0.014,N,0.026,K,D*2A
$GNGGA,075118.25,3753.0158626,N,13903.4320607,E,4,12,0.59,3.893,M,37.492,M,,0885*4A
$GNGLL,3753.0158626,N,13903.4320607,E,075118.25,A,D*7F
$PRDID,-0.1,0.0,22.7*52
$PSAT,HPR,075118.37,22.7,-0.1,0.0,G*0E
$GNRMC,075118.37,A,3753.0158619,N,13903.4320607,E,0.019,176.58,280221,,,R,V*15
$GNVTG,176.58,T,,M,0.019,N,0.036,K,D*26
$GNGGA,075118.37,3753.0158619,N,13903.4320607,E,4,12,0.59,3.894,M,37.492,M,,0885*42
$GNGLL,3753.0158619,N,13903.4320607,E,075118.37,A,D*70
$PRDID,-0.1,-0.0,22.7*7F
$PSAT,HPR,075118.49,22.7,-0.1,-0.0,G*2A
$GNRMC,075118.50,A,3753.0158624,N,13903.4320607,E,0.030,176.58,280221,,,R,V*11
$GNVTG,176.58,T,,M,0.030,N,0.055,K,D*28
$GNGGA,075118.50,3753.0158624,N,13903.4320607,E,4,12,0.59,3.894,M,37.492,M,,0885*4D
$GNGLL,3753.0158624,N,13903.4320607,E,075118.50,A,D*7F
$PRDID,-0.2,0.0,22.8*5E
$PSAT,HPR,075118.62,22.8,-0.2,0.0,G*02
$GNRMC,075118.62,A,3753.0158623,N,13903.4320600,E,0.009,176.58,280221,,,R,V*1A
$GNVTG,176.58,T,,M,0.009,N,0.016,K,D*25
$GNGGA,075118.62,3753.0158623,N,13903.4320600,E,4,12,0.59,3.893,M,37.492,M,,0885*4B
$GNGLL,3753.0158623,N,13903.4320600,E,075118.62,A,D*7E
$PRDID,-0.1,0.0,22.8*5D
$PSAT,HPR,075118.74,22.8,-0.1,0.0,G*06
$GNRMC,075118.75,A,3753.0158624,N,13903.4320615,E,0.016,176.58,280221,,,R,V*11
$GNVTG,176.58,T,,M,0.016,N,0.029,K,D*27
$GNGGA,075118.75,3753.0158624,N,13903.4320615,E,4,12,0.59,3.894,M,37.492,M,,0885*49
$GNGLL,3753.0158624,N,13903.4320615,E,075118.75,A,D*7B
$PRDID,-0.1,0.0,22.8*5D
$PSAT,HPR,075118.87,22.8,-0.1,0.0,G*0A
$GNRMC,075118.87,A,3753.0158618,N,13903.4320614,E,0.016,176.58,280221,,,R,V*12
$GNVTG,176.58,T,,M,0.016,N,0.030,K,D*2F
$GNGGA,075118.87,3753.0158618,N,13903.4320614,E,4,12,0.59,3.896,M,37.492,M,,0885*48
$GNGLL,3753.0158618,N,13903.4320614,E,075118.87,A,D*78
$PRDID,-0.1,0.0,22.8*5D
$PSAT,HPR,075119.00,22.8,-0.1,0.0,G*04
$GNRMC,075119.00,A,3753.0158615,N,13903.4320612,E,0.006,176.58,280221,,,R,V*16
$GNVTG,176.58,T,,M,0.006,N,0.012,K,D*2E
$GNGGA,075119.00,3753.0158615,N,13903.4320612,E,4,12,0.59,3.896,M,37.492,M,,0885*4D
$GNGLL,3753.0158615,N,13903.4320612,E,075119.00,A,D*7D
$PRDID,-0.1,-0.0,22.7*7F
$PSAT,HPR,075119.12,22.7,-0.1,-0.0,G*25
$GNRMC,075119.12,A,3753.0158626,N,13903.4320616,E,0.016,176.58,280221,,,R,V*10
$GNVTG,176.58,T,,M,0.016,N,0.030,K,D*2F
$GNGGA,075119.12,3753.0158626,N,13903.4320616,E,4,12,0.59,3.896,M,37.492,M,,0885*4A
$GNGLL,3753.0158626,N,13903.4320616,E,075119.12,A,D*7A
$PRDID,-0.1,0.0,22.7*52
$PSAT,HPR,075119.24,22.7,-0.1,0.0,G*0D
$GNRMC,075119.25,A,3753.0158615,N,13903.4320617,E,0.022,176.58,280221,,,R,V*12
$GNVTG,176.58,T,,M,0.022,N,0.041,K,D*2E
$GNGGA,075119.25,3753.0158615,N,13903.4320617,E,4,12,0.59,3.893,M,37.492,M,,0885*4A
$GNGLL,3753.0158615,N,13903.4320617,E,075119.25,A,D*7F
$PRDID,-0.1,0.0,22.7*52
$PSAT,HPR,075119.37,22.7,-0.1,0.0,G*0F
$GNRMC,075119.37,A,3753.0158622,N,13903.4320613,E,0.026,176.58,280221,,,R,V*15
$GNVTG,176.58,T,,M,0.026,N,0.048,K,D*23
$GNGGA,075119.37,3753.0158622,N,13903.4320613,E,4,12,0.59,3.895,M,37.492,M,,0885*4F
$GNGLL,3753.0158622,N,13903.4320613,E,075119.37,A,D*7C
$PRDID,-0.1,0.0,22.7*52
$PSAT,HPR,075119.49,22.7,-0.1,0.0,G*06
$GNRMC,075119.50,A,3753.0158617,N,13903.4320617,E,0.020,176.58,280221,,,R,V*10
$GNVTG,176.58,T,,M,0.020,N,0.038,K,D*22
$GNGGA,075119.50,3753.0158617,N,13903.4320617,E,4,12,0.59,3.893,M,37.492,M,,0885*4A
$GNGLL,3753.0158617,N,13903.4320617,E,075119.50,A,D*7F
$PRDID,-0.1,0.0,22.7*52
$PSAT,HPR,075119.62,22.7,-0.1,0.0,G*0F
$GNRMC,075119.62,A,3753.0158617,N,13903.4320620,E,0.028,176.58,280221,,,R,V*1D
$GNVTG,176.58,T,,M,0.028,N,0.052,K,D*26
$GNGGA,075119.62,3753.0158617,N,13903.4320620,E,4,12,0.59,3.896,M,37.492,M,,0885*4A
$GNGLL,3753.0158617,N,13903.4320620,E,075119.62,A,D*7A
$PRDID,-0.1,0.0,22.7*52
$PSAT,HPR,075119.74,22.7,-0.1,0.0,G*08
$GNRMC,075119.75,A,3753.0158617,N,13903.4320620,E,0.010,176.58,280221,,,R,V*10
$GNVTG,176.58,T,,M,0.010,N,0.019,K,D*22
$GNGGA,075119.75,3753.0158617,N,13903.4320620,E,4,12,0.59,3.894,M,37.492,M,,0885*4E
$GNGLL,3753.0158617,N,13903.4320620,E,075119.75,A,D*7C
$PRDID,-0.1,0.0,22.7*52
$PSAT,HPR,075119.87,22.7,-0.1,0.0,G*04
$GNRMC,075119.87,A,3753.0158619,N,13903.4320623,E,0.007,176.58,280221,,,R,V*16
$GNVTG,176.58,T,,M,0.007,N,0.013,K,D*2E
$GNGGA,075119.87,3753.0158619,N,13903.4320623,E,4,12,0.59,3.895,M,37.492,M,,0885*4F
$GNGLL,3753.0158619,N,13903.4320623,E,075119.87,A,D*7C
$PRDID,-0.1,0.0,22.7*52
$PSAT,HPR,075120.00,22.7,-0.1,0.0,G*01
$GNRMC,075120.00,A,3753.0158620,N,13903.4320618,E,0.014,176.58,280221,,,R,V*13
$GNVTG,176.58,T,,M,0.014,N,0.025,K,D*29
$GNGGA,075120.00,3753.0158620,N,13903.4320618,E,4,12,0.59,3.892,M,37.492,M,,0885*4F
$GNGLL,3753.0158620,N,13903.4320618,E,075120.00,A,D*7B
$PRDID,-0.1,0.0,22.5*50
$PSAT,HPR,075120.12,22.5,-0.1,0.0,G*00
$GNRMC,075120.12,A,3753.0158617,N,13903.4320625,E,0.012,176.58,280221,,,R,V*1C
$GNVTG,176.58,T,,M,0.012,N,0.021,K,D*2B
$GNGGA,075120.12,3753.0158617,N,13903.4320625,E,4,12,0.59,3.893,M,37.492,M,,0885*47
$GNGLL,3753.0158617,N,13903.4320625,E,075120.12,A,D*72
$PRDID,-0.1,0.0,22.6*53
$PSAT,HPR,075120.24,22.6,-0.1,0.0,G*06
$GNRMC,075120.25,A,3753.0158616,N,13903.4320626,E,0.017,176.58,280221,,,R,V*1F
$GNVTG,176.58,T,,M,0.017,N,0.032,K,D*2C
$GNGGA,075120.25,3753.0158616,N,13903.4320626,E,4,12,0.59,3.892,M,37.492,M,,0885*40
$GNGLL,3753.0158616,N,13903.4320626,E,075120.25,A,D*74
$PRDID,-0.1,0.0,22.6*53
$PSAT,HPR,075120.37,22.6,-0.1,0.0,G*04
$GNRMC,075120.37,A,3753.0158620,N,13903.4320631,E,0.015,176.58,280221,,,R,V*1D
$GNVTG,176.58,T,,M,0.015,N,0.027,K,D*2A
$GNGGA,075120.37,3753.0158620,N,13903.4320631,E,4,12,0.59,3.891,M,37.492,M,,0885*43
$GNGLL,3753.0158620,N,13903.4320631,E,075120.37,A,D*74
$PRDID,-0.1,0.0,22.6*53
$PSAT,HPR,075120.49,22.6,-0.1,0.0,G*0D
$GNRMC,075120.50,A,3753.0158617,N,13903.4320627,E,0.002,176.58,280221,,,R,V*19
$GNVTG,176.58,T,,M,0.002,N,0.003,K,D*2A
$GNGGA,075120.50,3753.0158617,N,13903.4320627,E,4,12,0.59,3.894,M,37.492,M,,0885*44
$GNGLL,3753.0158617,N,13903.4320627,E,075120.50,A,D*76
$PRDID,-0.1,0.0,22.8*5D
$PSAT,HPR,075120.62,22.8,-0.1,0.0,G*0A
$GNRMC,075120.62,A,3753.0158621,N,13903.4320632,E,0.015,176.58,280221,,,R,V*1F
$GNVTG,176.58,T,,M,0.015,N,0.028,K,D*25
$GNGGA,075120.62,3753.0158621,N,13903.4320632,E,4,12,0.59,3.894,M,37.492,M,,0885*44
$GNGLL,3753.0158621,N,13903.4320632,E,075120.62,A,D*76
$PRDID,-0.1,0.0,22.8*5D
$PSAT,HPR,075120.74,22.8,-0.1,0.0,G*0D
$GNRMC,075120.75,A,3753.0158620,N,13903.4320628,E,0.011,176.58,280221,,,R,V*17
$GNVTG,176.58,T,,M,0.011,N,0.020,K,D*29
$GNGGA,075120.75,3753.0158620,N,13903.4320628,E,4,12,0.59,3.891,M,37.492,M,,0885*4D
$GNGLL,3753.0158620,N,13903.4320628,E,075120.75,A,D*7A
$PRDID,-0.1,0.0,22.7*52
$PSAT,HPR,075120.87,22.7,-0.1,0.0,G*0E
$GNRMC,075120.87,A,3753.0158616,N,13903.4320625,E,0.007,176.58,280221,,,R,V*15
$GNVTG,176.58,T,,M,0.007,N,0.012,K,D*2F
$GNGGA,075120.87,3753.0158616,N,13903.4320625,E,4,12,0.59,3.892,M,37.492,M,,0885*4B
$GNGLL,3753.0158616,N,13903.4320625,E,075120.87,A,D*7F
$PRDID,-0.1,0.0,22.7*52
$PSAT,HPR,075121.00,22.7,-0.1,0.0,G*00
$GNRMC,075121.00,A,3753.0158617,N,13903.4320624,E,0.017,176.58,280221,,,R,V*1A
$GNVTG,176.58,T,,M,0.017,N,0.031,K,D*2F
$GNGGA,075121.00,3753.0158617,N,13903.4320624,E,4,12,0.59,3.894,M,37.492,M,,0885*43
$GNGLL,3753.0158617,N,13903.4320624,E,075121.00,A,D*71
$PRDID,-0.2,0.0,22.7*51
$PSAT,HPR,075121.12,22.7,-0.2,0.0,G*00
$GNRMC,075121.12,A,3753.0158611,N,13903.4320628,E,0.024,176.58,280221,,,R,V*13
$GNVTG,176.58,T,,M,0.024,N,0.045,K,D*2C
$GNGGA,075121.12,3753.0158611,N,13903.4320628,E,4,12,0.59,3.893,M,37.492,M,,0885*4D
$GNGLL,3753.0158611,N,13903.4320628,E,075121.12,A,D*78
$PRDID,-0.1,0.0,22.8*5D
$PSAT,HPR,075121.24,22.8,-0.1,0.0,G*09
$GNRMC,075121.25,A,3753.0158626,N,13903.4320612,E,0.011,176.58,280221,,,R,V*1C
$GNVTG,176.58,T,,M,0.011,N,0.021,K,D*28
$GNGGA,075121.25,3753.0158626,N,13903.4320612,E,4,12,0.59,3.893,M,37.492,M,,0885*44
$GNGLL,3753.0158626,N,13903.4320612,E,075121.25,A,D*71
$PRDID,-0.1,0.0,22.8*5D
$PSAT,HPR,075121.37,22.8,-0.1,0.0,G*0B
$GNRMC,075121.37,A,3753.0158617,N,13903.4320613,E,0.017,176.58,280221,,,R,V*1A
$GNVTG,176.58,T,,M,0.017,N,0.031,K,D*2F
$GNGGA,075121.37,3753.0158617,N,13903.4320613,E,4,12,0.59,3.894,M,37.492,M,,0885*43
$GNGLL,3753.0158617,N,13903.4320613,E,075121.37,A,D*71
$PRDID,-0.1,0.0,22.8*5D
$PSAT,HPR,075121.49,22.8,-0.1,0.0,G*02
$GNRMC,075121.50,A,3753.0158616,N,13903.4320614,E,0.005,176.58,280221,,,R,V*1E
$GNVTG,176.58,T,,M,0.005,N,0.010,K,D*2F
$GNGGA,075121.50,3753.0158616,N,13903.4320614,E,4,12,0.59,3.892,M,37.492,M,,0885*42
$GNGLL,3753.0158616,N,13903.4320614,E,075121.50,A,D*76
$PRDID,-0.1,0.0,22.7*52
$PSAT,HPR,075121.62,22.7,-0.1,0.0,G*04
$GNRMC,075121.62,A,3753.0158622,N,13903.4320607,E,0.010,176.58,280221,,,R,V*1E
$GNVTG,176.58,T,,M,0.010,N,0.019,K,D*22
$GNGGA,075121.62,3753.0158622,N,13903.4320607,E,4,12,0.59,3.894,M,37.492,M,,0885*40
$GNGLL,3753.0158622,N,13903.4320607,E,075121.62,A,D*72
$PRDID,-0.1,0.0,22.6*53
$PSAT,HPR,075121.74,22.6,-0.1,0.0,G*02
$GNRMC,075121.75,A,3753.0158618,N,13903.4320612,E,0.012,176.58,280221,,,R,V*17
$GNVTG,176.58,T,,M,0.012,N,0.022,K,D*28
$GNGGA,075121.75,3753.0158618,N,13903.4320612,E,4,12,0.59,3.894,M,37.492,M,,0885*4B
$GNGLL,3753.0158618,N,13903.4320612,E,075121.75,A,D*79
$PRDID,-0.2,0.0,22.6*50
$PSAT,HPR,075121.87,22.6,-0.2,0.0,G*0D
$GNRMC,075121.87,A,3753.0158616,N,13903.4320616,E,0.018,176.58,280221,,,R,V*1A
$GNVTG,176.58,T,,M,0.018,N,0.034,K,D*25
$GNGGA,075121.87,3753.0158616,N,13903.4320616,E,4,12,0.59,3.895,M,37.492,M,,0885*4D
$GNGLL,3753.0158616,N,13903.4320616,E,075121.87,A,D*7E
$PRDID,-0.2,0.0,22.5*53
$PSAT,HPR,075122.00,22.5,-0.2,0.0,G*02
$GNRMC,075122.00,A,3753.0158620,N,13903.4320608,E,0.021,176.58,280221,,,R,V*16
$GNVTG,176.58,T,,M,0.021,N,0.039,K,D*22
$GNGGA,075122.00,3753.0158620,N,13903.4320608,E,4,12,0.59,3.893,M,37.492,M,,0885*4D
$GNGLL,3753.0158620,N,13903.4320608,E,075122.00,A,D*78
$PRDID,-0.1,0.0,22.5*50
$PSAT,HPR,075122.12,22.5,-0.1,0.0,G*02
$GNRMC,075122.12,A,3753.0158608,N,13903.4320609,E,0.021,176.58,280221,,,R,V*1E
$GNVTG,176.58,T,,M,0.021,N,0.039,K,D*22
$GNGGA,075122.12,3753.0158608,N,13903.4320609,E,4,12,0.59,3.892,M,37.492,M,,0885*44
$GNGLL,3753.0158608,N,13903.4320609,E,075122.12,A,D*70
$PRDID,-0.1,-0.0,22.5*7D
$PSAT,HPR,075122.24,22.5,-0.1,-0.0,G*2A
$GNRMC,075122.25,A,3753.0158616,N,13903.4320612,E,0.042,176.58,280221,,,R,V*1A
$GNVTG,176.58,T,,M,0.042,N,0.077,K,D*2D
$GNGGA,075122.25,3753.0158616,N,13903.4320612,E,4,12,0.59,3.894,M,37.492,M,,0885*43
$GNGLL,3753.0158616,N,13903.4320612,E,075122.25,A,D*71
$PRDID,-0.2,-0.0,22.6*7D
$PSAT,HPR,075122.37,22.6,-0.2,-0.0,G*28
$GNRMC,075122.37,A,3753.0158614,N,13903.4320613,E,0.022,176.58,280221,,,R,V*1C
$GNVTG,176.58,T,,M,0.022,N,0.040,K,D*2F
$GNGGA,075122.37,3753.0158614,N,13903.4320613,E,4,12,0.59,3.893,M,37.492,M,,0885*44
$GNGLL,3753.0158614,N,13903.4320613,E,075122.37,A,D*71
$PRDID,-0.2,-0.0,22.6*7D
$PSAT,HPR,075122.49,22.6,-0.2,-0.0,G*21
$GNRMC,075122.50,A,3753.0158614,N,13903.4320620,E,0.011,176.58,280221,,,R,V*1D
$GNVTG,176.58,T,,M,0.011,N,0.020,K,D*29
$GNGGA,075122.50,3753.0158614,N,13903.4320620,E,4,12,0.59,3.894,M,37.492,M,,0885*42
$GNGLL,3753.0158614,N,13903.4320620,E,075122.50,A,D*70
$PRDID,-0.1,-0.0,22.6*7E
$PSAT,HPR,075122.62,22.6,-0.1,-0.0,G*2B
$GNRMC,075122.62,A,3753.0158613,N,13903.4320619,E,0.002,176.58,280221,,,R,V*13
$GNVTG,176.58,T,,M,0.002,N,0.003,K,D*2A
$GNGGA,075122.62,3753.0158613,N,13903.4320619,E,4,12,0.59,3.894,M,37.492,M,,0885*4E
$GNGLL,3753.0158613,N,13903.4320619,E,075122.62,A,D*7C
$PRDID,-0.1,-0.0,22.6*7E
$PSAT,HPR,075122.74,22.6,-0.1,-0.0,G*2C
$GNRMC,075122.75,A,3753.0158613,N,13903.4320618,E,0.016,176.58,280221,,,R,V*11
$GNVTG,176.58,T,,M,0.016,N,0.030,K,D*2F
$GNGGA,075122.75,3753.0158613,N,13903.4320618,E,4,12,0.59,3.894,M,37.492,M,,0885*49
$GNGLL,3753.0158613,N,13903.4320618,E,075122.75,A,D*7B
$PRDID,-0.1,-0.0,22.5*7D
$PSAT,HPR,075122.87,22.5,-0.1,-0.0,G*23
$GNRMC,075122.87,A,3753.0158612,N,13903.4320617,E,0.021,176.58,280221,,,R,V*16
$GNVTG,176.58,T,,M,0.021,N,0.038,K,D*23
$GNGGA,075122.87,3753.0158612,N,13903.4320617,E,4,12,0.59,3.894,M,37.492,M,,0885*4A
$GNGLL,3753.0158612,N,13903.4320617,E,075122.87,A,D*78
$PRDID,-0.1,-0.0,22.4*7C
$PSAT,HPR,075123.00,22.4,-0.1,-0.0,G*2C
$GNRMC,075123.00,A,3753.0158614,N,13903.4320618,E,0.006,176.58,280221,,,R,V*14
$GNVTG,176.58,T,,M,0.006,N,0.011,K,D*2D
$GNGGA,075123.00,3753.0158614,N,13903.4320618,E,4,12,0.59,3.893,M,37.492,M,,0885*4A
$GNGLL,3753.0158614,N,13903.4320618,E,075123.00,A,D*7F
$PRDID,-0.1,-0.0,22.4*7C
$PSAT,HPR,075123.12,22.4,-0.1,-0.0,G*2F
$GNRMC,075123.12,A,3753.0158606,N,13903.4320620,E,0.010,176.58,280221,,,R,V*18
$GNVTG,176.58,T,,M,0.010,N,0.018,K,D*23
$GNGGA,075123.12,3753.0158606,N,13903.4320620,E,4,12,0.59,3.895,M,37.492,M,,0885*47
$GNGLL,3753.0158606,N,13903.4320620,E,075123.12,A,D*74
$PRDID,-0.1,-0.0,22.4*7C
$PSAT,HPR,075123.24,22.4,-0.1,-0.0,G*2A
$GNRMC,075123.25,A,3753.0158606,N,13903.4320623,E,0.017,176.58,280221,,,R,V*18
$GNVTG,176.58,T,,M,0.017,N,0.031,K,D*2F
